"section","kind","area","price","ltime","address","d21","d22","d23","d24","d25","d26","d27","d28","d29","d210","d211","d41","d42","d43","d5","d6","d7","d8","d9","lat","lng","loc","id","min_station","min_station_name","min_park","min_park_name"
"南港區","整層住家",13,"27999","2016-12-16 11:24:02","南港區成福路194巷",0,0,0,0,0,0,0,0,0,1,0,0,0,0,0,1,1,1,1,"25.0408487","121.5878482","GEOMETRIC_CENTER",4746542,712.530661277542,"後山埤站",303.241871141353,"玉成公園"
"北投區","獨立套房",6,"10000","2016-12-16 11:24:24","北投區石牌路二段332號",0,0,0,0,0,0,0,1,0,0,0,1,0,0,0,1,1,1,1,"25.1223120","121.5243400","ROOFTOP",4555841,1239.00438465314,"石牌站",182.406588285109,"天美綠地"
"士林區","整層住家",18,"19000","2016-12-16 11:24:13","士林區士東路",0,0,0,0,0,0,1,0,0,0,0,0,0,0,0,1,0,0,0,"25.1127719","121.5335525","GEOMETRIC_CENTER",4733002,1520.62442378106,"明德站",449.958989607546,"天和一號公園"
"中正區","整層住家",78,"110000","2016-12-16 11:18:15","中正區泰安街6巷8號",0,0,0,0,0,0,0,0,0,0,0,0,0,0,0,1,0,1,1,"25.0401475","121.5274302","ROOFTOP",4736824,546.11104375745,"善導寺站",198.792391657877,"齊東公園"
"萬華區","獨立套房",9,"15000","2016-12-16 11:18:21","萬華區大理街159巷",0,0,0,0,1,0,0,0,0,0,0,1,0,0,0,1,1,1,1,"25.0346503","121.4958893","GEOMETRIC_CENTER",4726421,403.180290946762,"龍山寺站",120.917854315933,"聚德公園"
"中山區","獨立套房",9.5,"13900","2016-12-16 11:18:04","中山區新生北路三段",0,1,0,0,0,0,0,0,0,0,0,1,0,0,0,1,1,1,1,"25.0666336","121.5279828","GEOMETRIC_CENTER",4684800,466.181160868442,"中山國小站",178.031779795085,"新祿公園"
"大安區","分租套房",5,"11000","2016-12-16 11:18:27","大安區金山南路二段141巷36號",0,0,0,1,0,0,0,0,0,0,0,0,1,0,0,1,1,1,1,"25.0292920","121.5282380","ROOFTOP",4753904,534.680345623886,"東門站",139.106365806184,"錦華綠地"
"大同區","整層住家",40.9,"99500","2016-12-16 11:18:17","大同區萬全街",1,0,0,0,0,0,0,0,0,0,0,0,0,0,0,1,1,1,1,"25.0584215","121.5180141","GEOMETRIC_CENTER",4602995,267.429751099227,"雙連站",189.897255089084,"蔣渭水公園"
"松山區","獨立套房",13,"23000","2016-12-16 11:18:12","松山區八德路三段12巷5弄22號",0,0,1,0,0,0,0,0,0,0,0,1,0,0,0,1,0,1,1,"25.0474938","121.5512386","ROOFTOP",4741398,442.349425408334,"台北小巨蛋站",142.860305870858,"敦化公園"
"士林區","獨立套房",10,"15000","2016-12-16 11:18:27","士林區大東路",0,0,0,0,0,0,1,0,0,0,0,1,0,0,0,1,1,0,1,"25.0900093","121.5255087","GEOMETRIC_CENTER",4712312,399.140352550833,"士林站",187.618736045927,"福文綠地"
"大安區","整層住家",21,"27036","2016-12-16 11:18:14","大安區仁愛路三段123巷",0,0,0,1,0,0,0,0,0,0,0,0,0,0,0,1,1,1,1,"25.0394309","121.5420097","GEOMETRIC_CENTER",4698810,302.135902761348,"忠孝復興站",345.002280314735,"附中公園"
"大同區","雅房",5,"7000","2016-12-16 11:12:12","大同區重慶北路二段114巷13號",1,0,0,0,0,0,0,0,0,0,0,0,0,1,0,1,1,1,1,"25.0576570","121.5131280","ROOFTOP",4734240,624.568506598557,"大橋頭站",35.0532356608085,"歸綏公園"
"中山區","雅房",5,"9000","2016-12-16 11:12:04","中山區中山北路二段72巷",0,1,0,0,0,0,0,0,0,0,0,0,0,1,0,1,1,1,1,"25.0570501","121.5211750","GEOMETRIC_CENTER",4721338,110.939782888117,"雙連站",242.753838675764,"民享公園"
"大同區","獨立套房",8,"33000","2016-12-16 11:12:25","大同區延平北路一段69巷13號",1,0,0,0,0,0,0,0,0,0,0,1,0,0,0,1,1,1,1,"25.0515406","121.5127154","ROOFTOP",4617478,392.233517232336,"北門站",213.67452931311,"塔城公園"
"大安區","分租套房",6.7,"20000","2016-12-16 11:12:17","大安區永康街4巷",0,0,0,1,0,0,0,0,0,0,0,0,1,0,0,1,1,1,1,"25.0330014","121.5290997","GEOMETRIC_CENTER",4698461,118.301427696487,"東門站",166.01721996281,"永康公園"
"中山區","整層住家",47,"33000","2016-12-16 11:08:02","中山區樂群二路",0,1,0,0,0,0,0,0,0,0,0,0,0,0,0,1,0,0,0,"25.0799872","121.5574405","GEOMETRIC_CENTER",4740728,572.823997098312,"劍南路站",10.7800022500866,"中山418號綠地"
"中山區","整層住家",36,"45000","2016-12-16 11:07:23","中山區明水路397巷",0,1,0,0,0,0,0,0,0,0,0,0,0,0,0,0,0,0,0,"25.0786628","121.5476839","GEOMETRIC_CENTER",4695956,120.571708535152,"大直站",41.7632076459939,"明水公園"
"大同區","整層住家",40,"58000","2016-12-16 11:00:57","大同區華陰街",1,0,0,0,0,0,0,0,0,0,0,0,0,0,0,1,0,1,0,"25.0500044","121.5164795","GEOMETRIC_CENTER",4688436,257.640131626211,"臺北車站",35.2668550845439,"交通8號廣場"
"信義區","整層住家",18.5,"23000","2016-12-16 11:00:54","信義區松山路",0,0,0,0,0,1,0,0,0,0,0,0,0,0,0,0,0,0,0,"25.0353603","121.5797624","GEOMETRIC_CENTER",4705183,675.996364473188,"永春站",56.6996516586027,"松隆綠地"
"中山區","整層住家",21,"21500","2016-12-16 11:00:52","中山區林森北路",0,1,0,0,0,0,0,0,0,0,0,0,0,0,0,1,1,0,0,"25.0581693","121.5255269","GEOMETRIC_CENTER",4692610,497.409985284851,"雙連站",120.636719282011,"永盛公園"
"中山區","整層住家",18,"29500","2016-12-16 11:00:29","中山區敬業一路",0,1,0,0,0,0,0,0,0,0,0,0,0,0,0,1,1,1,1,"25.0819462","121.5525618","GEOMETRIC_CENTER",4716820,445.018588123759,"劍南路站",203.407911175049,"中山415號綠地"
"士林區","獨立套房",7,"8500","2016-12-16 11:00:04","士林區延平北路五段163巷17弄1號",0,0,0,0,0,0,1,0,0,0,0,1,0,0,0,1,1,1,1,"25.0826319","121.5095278","ROOFTOP",4717635,1587.41009297851,"劍潭站",164.556701564193,"福順公園"
"中山區","獨立套房",16.5,"17800","2016-12-16 11:00:05","中山區南京東路二段",0,1,0,0,0,0,0,0,0,0,0,1,0,0,0,1,1,1,1,"25.0519529","121.5319662","GEOMETRIC_CENTER",4670543,112.348875893512,"松江南京站",164.002259854878,"一江公園"
"士林區","獨立套房",8,"8800","2016-12-16 11:00:10","士林區重慶北路四段72號",0,0,0,0,0,0,1,0,0,0,0,1,0,0,0,1,1,1,1,"25.0819410","121.5131230","ROOFTOP",4716839,1248.62912061803,"劍潭站",206.032185850811,"福順公園"
"大安區","整層住家",43,"65000","2016-12-16 10:50:02","大安區仁愛路四段345巷2弄7號",0,0,0,1,0,0,0,0,0,0,0,0,0,0,0,1,0,0,0,"25.0385558","121.5537025","ROOFTOP",4521433,398.90496680128,"忠孝敦化站",394.93110869231,"光信公園"
"中山區","獨立套房",10,"11000","2016-12-16 10:54:07","中山區民權東路二段152巷5弄2號",0,1,0,0,0,0,0,0,0,0,0,1,0,0,0,1,1,1,1,"25.0612962","121.5346230","ROOFTOP",4736115,227.948886897697,"行天宮站",151.223267931564,"錦北公園"
"信義區","分租套房",13,"22000","2016-12-16 10:54:04","信義區信義路六段30號",0,0,0,0,0,1,0,0,0,0,0,0,1,0,0,1,1,1,0,"25.0341439","121.5756410","ROOFTOP",4721113,698.864823560182,"象山站",57.5640199108768,"松友公園"
"信義區","獨立套房",8,"15000","2016-12-16 10:54:11","信義區林口街24巷23號",0,0,0,0,0,1,0,0,0,0,0,1,0,0,0,1,1,1,1,"25.0378495","121.5802354","ROOFTOP",4664049,486.607898751119,"永春站",168.548236179914,"福德公園"
"大安區","雅房",3,"8000","2016-12-16 10:54:23","大安區樂利路27巷",0,0,0,1,0,0,0,0,0,0,0,0,0,1,1,1,1,1,1,"25.0275821","121.5518838","GEOMETRIC_CENTER",4675741,433.194043270881,"六張犁站",128.537424705741,"法治公園"
"松山區","整層住家",10,"15000","2016-12-16 10:48:05","松山區塔悠路",0,0,1,0,0,0,0,0,0,0,0,0,0,0,0,1,1,1,1,"25.0576385","121.5693605","GEOMETRIC_CENTER",4714153,1131.69441082486,"南京三民站",163.384968204982,"新東公園"
"士林區","整層住家",30,"18000","2016-12-16 10:31:05","士林區士東路16巷266弄12號",0,0,0,0,0,0,1,0,0,0,0,0,0,0,0,0,0,0,0,"25.1115919","121.5359791","ROOFTOP",4693198,1656.62098252825,"芝山站",644.062752428967,"聖山綠地"
"大安區","獨立套房",10,"15000","2016-12-16 10:57:25","大安區敦化南路160巷",0,0,0,1,0,0,0,0,0,0,0,1,0,0,0,1,0,1,1,"25.0435777","121.5472239","GEOMETRIC_CENTER",4751314,410.622662017793,"忠孝復興站",199.755115333231,"
"大安區","分租套房",5,"7500","2016-12-16 10:30:33","大安區和平東路三段606巷51號",0,0,0,1,0,0,0,0,0,0,0,0,1,0,0,1,1,1,1,"25.0248475","121.5480644","ROOFTOP",4628756,380.796396669895,"六張犁站",162.803262951546,"群賢公園"
"松山區","獨立套房",10,"18000","2016-12-16 10:30:27","松山區民生東路五段137巷4弄20號",0,0,1,0,0,0,0,0,0,0,0,1,0,0,0,1,1,1,1,"25.0597315","121.5624980","ROOFTOP",4710776,943.505918048966,"南京三民站",64.0320485725111,"松山121號綠地三民圓環"
"松山區","獨立套房",8,"10000","2016-12-16 10:30:17","松山區松河街",0,0,1,0,0,0,0,0,0,0,0,1,0,0,0,1,1,1,1,"25.0510704","121.5751887","GEOMETRIC_CENTER",4585101,270.46561914309,"松山站",232.083510619263,"交五"
"中山區","獨立套房",8,"22000","2016-12-16 10:24:10","中山區錦西街",0,1,0,0,0,0,0,0,0,0,0,1,0,0,0,1,1,1,1,"25.0603303","121.5214402","GEOMETRIC_CENTER",4613749,283.241044499688,"雙連站",126.930139617317,"民享公園"
"士林區","獨立套房",6.5,"11000","2016-12-16 10:24:06","士林區小北街22巷12號",0,0,0,0,0,0,1,0,0,0,0,1,0,0,0,1,1,1,1,"25.0911450","121.5250630","ROOFTOP",4676245,290.864663802043,"士林站",225.30814802698,"福文綠地"
"內湖區","整層住家",37,"35000","2016-12-16 10:24:08","內湖區成功路五段420巷",0,0,0,0,0,0,0,0,1,0,0,0,0,0,0,1,0,1,1,"25.0752755","121.6085536","GEOMETRIC_CENTER",4690304,317.939441447425,"葫洲站",68.6354034881492,"康湖公園"
"萬華區","分租套房",10,"15500","2016-12-16 10:24:06","萬華區武昌街二段",0,0,0,0,1,0,0,0,0,0,0,0,1,0,0,1,1,1,1,"25.0450067","121.5056721","GEOMETRIC_CENTER",4602810,378.68808674986,"西門站",120.773180298002,"福星公園"
"大安區","整層住家",40,"59000","2016-12-16 10:24:04","大安區四維路76巷",0,0,0,1,0,0,0,0,0,0,0,0,0,0,0,1,0,0,0,"25.0342329","121.5472055","GEOMETRIC_CENTER",4744872,350.970711851424,"大安站",92.132767239261,"德安公園"
"松山區","獨立套房",7,"15800","2016-12-16 10:24:14","松山區南京東路四段133巷",0,0,1,0,0,0,0,0,0,0,0,1,0,0,0,1,1,1,1,"25.0526889","121.5551507","GEOMETRIC_CENTER",4753156,461.370601185698,"台北小巨蛋站",261.899499778068,"寧安公園"
"松山區","雅房",7,"8500","2016-12-16 10:18:02","松山區光復南路66巷",0,0,1,0,0,0,0,0,0,0,0,0,0,1,0,1,0,1,1,"25.0451517","121.5557934","GEOMETRIC_CENTER",4699383,573.22919043582,"忠孝敦化站",199.34926103228,"復源公園"
"中山區","獨立套房",12,"15000","2016-12-16 10:01:01","中山區民權東路二段",0,1,0,0,0,0,0,0,0,0,0,1,0,0,0,1,1,1,1,"25.0625898","121.5325646","GEOMETRIC_CENTER",4733085,325.841095546856,"行天宮站",278.466756222684,"新壽公園"
"北投區","整層住家",62.9,"65000","2016-12-16 10:00:39","北投區石牌路二段315巷",0,0,0,0,0,0,0,1,0,0,0,0,0,0,0,0,0,0,0,"25.1232872","121.5218358","GEOMETRIC_CENTER",4729226,1162.795419631,"石牌站",414.514162734087,"行義公園"
"大安區","分租套房",7,"16800","2016-12-16 10:00:58","大安區大安路一段84巷",0,0,0,1,0,0,0,0,0,0,0,0,1,0,0,1,1,1,1,"25.0409700","121.5452254","GEOMETRIC_CENTER",4694727,164.367076244592,"忠孝復興站",167.882212981476,"
"萬華區","獨立套房",11,"11000","2016-12-16 10:00:11","萬華區西園路二段362號",0,0,0,0,1,0,0,0,0,0,0,1,0,0,0,1,1,1,1,"25.0254086","121.4916001","ROOFTOP",4675558,1376.84389638046,"龍山寺站",246.926541055827,"錦德公園"
"中山區","整層住家",130,"96000","2016-12-16 09:54:20","中山區長春路137巷3號",0,1,0,0,0,0,0,0,0,0,0,0,0,0,0,1,0,1,1,"25.0554389","121.5316474","ROOFTOP",4743665,481.750221027371,"松江南京站",104.359667369458,"中吉公園"
"信義區","獨立套房",8,"13000","2016-12-16 09:54:23","信義區莊敬路202號",0,0,0,0,0,1,0,0,0,0,0,1,0,0,0,1,1,1,0,"25.0304208","121.5613429","ROOFTOP",4742432,347.44592847714,"台北101/世貿中心站",141.796277554624,"眷村文化公園"
"文山區","整層住家",27,"20900","2016-12-16 09:54:21","文山區興隆路三段221巷",0,0,0,0,0,0,0,0,0,0,1,0,0,0,0,1,0,1,1,"24.9941260","121.5607986","GEOMETRIC_CENTER",4751613,641.788301685702,"萬芳醫院站",67.2716302301246,"興家公園"
"松山區","整層住家",19,"32000","2016-12-16 09:54:19","松山區八德路三段199巷",0,0,1,0,0,0,0,0,0,0,0,0,0,0,0,1,1,1,1,"25.0490511","121.5563231","GEOMETRIC_CENTER",4733204,494.966051335474,"南京三民站",205.869137767512,"寧安公園"
"萬華區","整層住家",22,"32000","2016-12-16 09:42:03","萬華區康定路105號",0,0,0,0,1,0,0,0,0,0,0,0,0,0,0,1,1,1,1,"25.0394756","121.5020431","ROOFTOP",4746751,517.923805573124,"龍山寺站",112.236459841503,"萬華266號綠地"
"大安區","獨立套房",9.3,"19600","2016-12-16 09:36:19","大安區復興南路二段",0,0,0,1,0,0,0,0,0,0,0,1,0,0,0,1,0,0,0,"25.0273218","121.5435743","GEOMETRIC_CENTER",4727143,134.055797473223,"科技大樓站",108.514880635839,"龍陣一號公園"
"大安區","整層住家",22,"23428","2016-12-16 09:31:00","大安區通化街38巷",0,0,0,1,0,0,0,0,0,0,0,0,0,0,0,1,1,1,1,"25.0309229","121.5536512","GEOMETRIC_CENTER",4744103,258.858136386858,"信義安和站",165.431065381603,"通化公園"
"中山區","獨立套房",9,"15000","2016-12-16 09:30:23","中山區中山北路二段115巷",0,1,0,0,0,0,0,0,0,0,0,1,0,0,0,1,1,1,1,"25.0608948","121.5242866","GEOMETRIC_CENTER",4753484,293.707325095681,"中山國小站",78.6548735193113,"新興公園"
"士林區","整層住家",46,"25000","2016-12-16 09:30:09","士林區大南路27號",0,0,0,0,0,0,1,0,0,0,0,0,0,0,0,0,0,1,0,"25.0890822","121.5256318","ROOFTOP",4704848,471.892681639094,"劍潭站",237.529898786903,"福文綠地"
"大安區","整層住家",20,"26902","2016-12-16 09:32:11","大安區復興南路一段",0,0,0,1,0,0,0,0,0,0,0,0,0,0,0,1,1,1,1,"25.0390113","121.5436248","GEOMETRIC_CENTER",4668855,291.75375606706,"忠孝復興站",327.68226535079,"附中公園"
"大安區","整層住家",12.4,"31000","2016-12-16 09:30:19","大安區瑞安街208巷",0,0,0,1,0,0,0,0,0,0,0,0,0,0,0,1,1,1,1,"25.0294923","121.5405520","GEOMETRIC_CENTER",4698618,474.631032048936,"科技大樓站",153.326363198034,"龍圖公園"
"信義區","獨立套房",8,"15900","2016-12-16 09:30:07","信義區吳興街284巷",0,0,0,0,0,1,0,0,0,0,0,1,0,0,0,1,1,1,1,"25.0242460","121.5635970","GEOMETRIC_CENTER",4703134,981.766492884638,"台北101/世貿中心站",82.7066593412238,"黎雙公園"
"中正區","獨立套房",8,"15000","2016-12-16 09:30:08","中正區臨沂街75巷",0,0,0,0,0,0,0,0,0,0,0,1,0,0,0,1,1,1,0,"25.0346361","121.5289538","GEOMETRIC_CENTER",4687869,64.8846341695141,"東門站",36.2178517324142,"信愛公園"
"大安區","雅房",10,"10000","2016-12-16 09:30:12","大安區羅斯福路三段",0,0,0,1,0,0,0,0,0,0,0,0,0,1,0,1,0,1,1,"25.0205107","121.5285280","GEOMETRIC_CENTER",4717903,437.828833521963,"臺電大樓站",170.769159782595,"古風公園"
"內湖區","整層住家",66,"59900","2016-12-16 09:24:23","內湖區民權東路六段",0,0,0,0,0,0,0,0,1,0,0,0,0,0,0,1,1,0,0,"25.0690883","121.5892020","GEOMETRIC_CENTER",4706171,618.609912712853,"內湖站",172.008447027152,NA
"南港區","整層住家",48,"45000","2016-12-16 09:24:18","南港區忠孝東路六段",0,0,0,0,0,0,0,0,0,1,0,0,0,0,0,0,0,0,0,"25.0492267","121.5890952","GEOMETRIC_CENTER",4679084,448.610419791449,"昆陽站",349.16476230174,"聯成公園"
"松山區","整層住家",36,"42000","2016-12-16 09:24:23","松山區八德路四段",0,0,1,0,0,0,0,0,0,0,0,0,0,0,0,1,1,1,1,"25.0493187","121.5688828","GEOMETRIC_CENTER",3825321,874.283167612633,"松山站",200.411444612524,"交六"
"南港區","整層住家",119.1,"198000","2016-12-16 09:18:04","南港區重陽路",0,0,0,0,0,0,0,0,0,1,0,0,0,0,0,0,0,0,0,"25.0578851","121.6053454","GEOMETRIC_CENTER",4646052,660.520496890378,"南港站",136.182742184348,"興華公園"
"南港區","整層住家",12,"23800","2016-12-16 09:18:16","南港區興中路28巷",0,0,0,0,0,0,0,0,0,1,0,0,0,0,0,1,1,1,1,"25.0554417","121.6063035","GEOMETRIC_CENTER",4704514,377.844234830371,"南港站",169.309299423345,"南興公園"
"萬華區","分租套房",14,"12000","2016-12-16 09:18:16","萬華區西園路一段",0,0,0,0,1,0,0,0,0,0,0,0,1,0,0,1,1,1,1,"25.0367630","121.4993775","GEOMETRIC_CENTER",4688683,171.279631525094,"龍山寺站",147.58257261393,"艋舺公園"
"信義區","整層住家",32,"32800","2016-12-16 09:18:15","信義區吳興街284巷26-1號",0,0,0,0,0,1,0,0,0,0,0,0,0,0,1,1,1,1,1,"25.0236869","121.5633310","ROOFTOP",4705881,943.477157985973,"麟光站",144.628438556553,"黎雙公園"
"內湖區","獨立套房",12,"17500","2016-12-16 09:12:02","內湖區新明路",0,0,0,0,0,0,0,0,1,0,0,1,0,0,0,1,1,1,1,"25.0565838","121.5837421","GEOMETRIC_CENTER",4702652,926.80782623444,"內湖站",124.467370419274,"內湖119號安興綠地"
"內湖區","整層住家",45,"45000","2016-12-16 09:12:22","內湖區成功路二段",0,0,0,0,0,0,0,0,1,0,0,0,0,0,0,1,1,1,1,"25.0690078","121.5914146","GEOMETRIC_CENTER",4681910,773.733049204195,"內湖站",52.4347448353617,NA
"信義區","獨立套房",12.5,"26000","2016-12-16 09:06:17","信義區忠孝東路五段238號",0,0,0,0,0,1,0,0,0,0,0,1,0,0,0,1,1,1,1,"25.0407580","121.5720330","ROOFTOP",4726498,459.022368902161,"永春站",147.535742719339,"富台公園"
"松山區","整層住家",17,"54400","2016-12-16 09:06:24","松山區民生東路四段80巷",0,0,1,0,0,0,0,0,0,0,0,0,0,0,0,1,1,1,1,"25.0572220","121.5530388","GEOMETRIC_CENTER",4720903,658.069658233002,"松山機場站",31.519599155835,"延壽二號公園"
"中正區","獨立套房",8,"19000","2016-12-16 09:00:36","中正區忠孝西路一段",0,0,0,0,0,0,0,0,0,0,0,1,0,0,0,1,1,1,0,"25.0466898","121.5158021","GEOMETRIC_CENTER",4724463,173.300567436449,"臺北車站",11.5145613459349,"交通6號廣場"
"信義區","分租套房",6,"9000","2016-12-16 09:00:55","信義區吳興街269巷",0,0,0,0,0,1,0,0,0,0,0,0,1,0,0,1,1,1,1,"25.0271674","121.5644866","GEOMETRIC_CENTER",4715898,668.673561217321,"台北101/世貿中心站",264.210857151007,"黎雙公園"
"松山區","整層住家",30,"33500","2016-12-16 09:00:21","松山區富錦街",0,0,1,0,0,0,0,0,0,0,0,0,0,0,0,1,0,1,1,"25.0606290","121.5591084","GEOMETRIC_CENTER",4743109,786.303709962285,"松山機場站",48.1332228789075,"富錦三號公園"
"北投區","分租套房",5,"8500","2016-12-16 08:54:08","北投區吉利街320巷",0,0,0,0,0,0,0,1,0,0,0,0,1,0,1,1,1,1,1,"25.1175105","121.5113548","GEOMETRIC_CENTER",4748476,538.676758052644,"石牌站",102.446387807847,"北投134號綠地"
"中正區","整層住家",20,"24000","2016-12-16 08:54:13","中正區西藏路",0,0,0,0,0,0,0,0,0,0,0,0,0,0,0,1,0,1,1,"25.0303563","121.5059679","GEOMETRIC_CENTER",4691742,760.053178206961,"小南門站",584.098926665181,"青年公園"
"信義區","整層住家",20,"23528","2016-12-16 08:54:07","信義區文昌街",0,0,0,0,0,1,0,0,0,0,0,0,0,0,0,1,1,1,1,"25.0321716","121.5579880","GEOMETRIC_CENTER",4693930,533.499694033284,"台北101/世貿中心站",93.0541214898845,"台北好好看(編號098-1-005)"
"中山區","獨立套房",5,"12000","2016-12-16 08:54:17","中山區大直街67巷",0,1,0,0,0,0,0,0,0,0,0,1,0,0,0,1,1,1,1,"25.0837401","121.5476000","GEOMETRIC_CENTER",4734588,479.984766982127,"大直站",119.122412092994,"大直公園"
"中山區","整層住家",30,"32000","2016-12-16 08:54:01","中山區復興北路320巷21號",0,1,0,0,0,0,0,0,0,0,0,0,0,0,0,1,1,1,1,"25.0595224","121.5426042","ROOFTOP",4722937,220.276400821777,"中山國中站",55.7132159948871,"龍江公園"
"信義區","整層住家",32,"67000","2016-12-16 08:54:05","信義區基隆路二段179號",0,0,0,0,0,1,0,0,0,0,0,0,0,0,0,1,1,1,1,"25.0250678","121.5537167","ROOFTOP",4698882,260.732240146758,"六張犁站",198.683058231181,"崇德綠地"
"松山區","獨立套房",7,"15000","2016-12-16 08:48:08","松山區南京東路三段256巷",0,0,1,0,0,0,0,0,0,0,0,1,0,0,0,1,1,1,1,"25.0502060","121.5447061","GEOMETRIC_CENTER",4732719,213.343773806067,"南京復興站",124.15880860392,"敦中公園"
"內湖區","整層住家",42,"35800","2016-12-16 08:42:04","內湖區康樂街",0,0,0,0,0,0,0,0,1,0,0,0,0,0,0,0,0,0,0,"25.0833832","121.6240522","GEOMETRIC_CENTER",4734582,1894.91034920272,"大湖公園站",1005.05564109607,"康樂綠地"
"中山區","整層住家",44,"50000","2016-12-16 08:42:15","中山區中山北路二段",0,1,0,0,0,0,0,0,0,0,0,0,0,0,0,1,1,1,1,"25.0600427","121.5228506","GEOMETRIC_CENTER",4709240,328.900653729376,"雙連站",197.466812285515,"民享公園"
"中山區","獨立套房",8,"13000","2016-12-16 08:42:10","中山區民生東路二段147巷",0,1,0,0,0,0,0,0,0,0,0,1,0,0,0,1,1,0,1,"25.0592011","121.5348330","GEOMETRIC_CENTER",4695088,175.924425859443,"行天宮站",175.197928357749,"錦北公園"
"松山區","獨立套房",7,"13000","2016-12-16 08:42:05","松山區塔悠路27號",0,0,1,0,0,0,0,0,0,0,0,1,0,0,0,1,1,1,0,"25.0505060","121.5716494","RANGE_INTERPOLATED",4715956,597.020047103974,"松山站",152.695994458584,"交六"
"大安區","整層住家",42,"40000","2016-12-16 08:42:10","大安區通化街38巷",0,0,0,1,0,0,0,0,0,0,0,0,0,0,0,0,0,0,0,"25.0309229","121.5536512","GEOMETRIC_CENTER",4719180,258.858136386858,"信義安和站",165.431065381603,"通化公園"
"大安區","整層住家",22,"23927","2016-12-16 08:42:03","大安區通化街38巷",0,0,0,1,0,0,0,0,0,0,0,0,0,0,0,1,1,1,1,"25.0309229","121.5536512","GEOMETRIC_CENTER",4664208,258.858136386858,"信義安和站",165.431065381603,"通化公園"
"信義區","整層住家",40,"73000","2016-12-16 08:42:10","信義區基隆路二段177號",0,0,0,0,0,1,0,0,0,0,0,0,0,0,0,1,1,1,1,"25.0252111","121.5538253","ROOFTOP",4698864,279.023695589927,"六張犁站",197.559925043393,"崇德綠地"
"大安區","整層住家",12,"29000","2016-12-16 08:36:12","大安區永康街75巷",0,0,0,1,0,0,0,0,0,0,0,0,0,0,0,1,1,1,1,"25.0288640","121.5305709","GEOMETRIC_CENTER",4364250,600.814425740493,"東門站",100.911630170862,"金華公園"
"士林區","獨立套房",6,"7800","2016-12-16 08:36:12","士林區小東街20號",0,0,0,0,0,0,1,0,0,0,0,1,0,0,0,1,1,1,1,"25.0890736","121.5262134","ROOFTOP",4428921,481.43959876254,"劍潭站",203.220845764671,"福文綠地"
"中山區","獨立套房",9,"18000","2016-12-16 08:36:15","中山區林森北路121號",0,1,0,0,0,0,0,0,0,0,0,1,0,0,0,1,1,1,1,"25.0508214","121.5251558","ROOFTOP",4753863,538.130357561224,"中山站",183.753777989604,"林森公園"
"中正區","雅房",5,"5500","2016-12-16 08:36:13","中正區廈門街123巷26號",0,0,0,0,0,0,0,0,0,0,0,0,0,1,0,1,0,1,1,"25.0228921","121.5187893","ROOFTOP",2781852,551.389710916663,"古亭站",27.6618547848875,"牯嶺公園"
"北投區","整層住家",17,"17000","2016-12-16 08:36:12","北投區豐年路一段",0,0,0,0,0,0,0,1,0,0,0,0,0,0,0,1,0,1,1,"25.1341061","121.4975433","GEOMETRIC_CENTER",4744190,352.722359788368,"北投站",159.2049443905,"北投160號綠地"
"內湖區","獨立套房",10,"14000","2016-12-16 08:30:26","內湖區康樂街186巷",0,0,0,0,0,0,0,0,1,0,0,1,0,0,0,1,1,1,1,"25.0767740","121.6202345","GEOMETRIC_CENTER",4719878,1375.1001243156,"東湖站",210.92531838116,"康樂綠地"
"松山區","獨立套房",7,"25000","2016-12-16 08:30:32","松山區復興北路",0,0,1,0,0,0,0,0,0,0,0,1,0,0,0,1,1,1,1,"25.0570360","121.5442298","GEOMETRIC_CENTER",4435871,424.350068514947,"中山國中站",187.728426566137,"中華公園"
"信義區","獨立套房",8,"8000","2016-12-16 08:30:25","信義區吳興街506巷",0,0,0,0,0,1,0,0,0,0,0,1,0,0,1,1,1,1,1,"25.0226339","121.5693321","APPROXIMATE",2399891,1148.22792591778,"象山站",127.337259066382,"泰和公園"
"文山區","整層住家",39.2,"38500","2016-12-16 08:30:25","文山區政大一街171號",0,0,0,0,0,0,0,0,0,0,1,0,0,0,0,1,1,1,1,"24.9856654","121.5840389","GEOMETRIC_CENTER",4710438,1477.02573587115,"動物園站",153.967733044668,"文山木柵59號公園"
"大安區","獨立套房",9,"13500","2016-12-16 08:30:37","大安區通化街171巷",0,0,0,1,0,0,0,0,0,0,0,1,0,0,0,1,1,0,1,"25.0277447","121.5548697","GEOMETRIC_CENTER",4695052,557.115054898443,"六張犁站",99.2138752775057,"臨江公園"
"中山區","獨立套房",8.5,"12000","2016-12-16 08:30:33","中山區中山北路三段32號",0,1,0,0,0,0,0,0,0,0,0,1,0,0,0,1,1,1,1,"25.0654654","121.5219987","ROOFTOP",4740154,393.030148360534,"民權西路站",71.4661369807513,"撫順公園"
"士林區","整層住家",34.9,"28000","2016-12-16 08:30:17","士林區天母西路41巷",0,0,0,0,0,0,1,0,0,0,0,0,0,0,0,0,0,0,0,"25.1190482","121.5273928","GEOMETRIC_CENTER",4677941,1294.78218082053,"石牌站",261.704541447338,"添壽一號綠地"
"中山區","整層住家",46,"28000","2016-12-16 08:22:48","中山區通北街",0,1,0,0,0,0,0,0,0,0,0,0,0,0,0,1,0,0,1,"25.0826945","121.5388850","GEOMETRIC_CENTER",4719746,883.407457202256,"大直站",120.811019319602,"力行2號綠地"
"信義區","整層住家",17,"29900","2016-12-16 08:06:09","信義區忠孝東路五段",0,0,0,0,0,1,0,0,0,0,0,0,0,0,0,1,1,1,1,"25.0410009","121.5732799","GEOMETRIC_CENTER",4728809,334.835312354302,"永春站",158.630204195091,"富台公園"
"松山區","整層住家",18,"23429","2016-12-16 06:30:09","松山區八德路四段",0,0,1,0,0,0,0,0,0,0,0,0,0,0,0,1,1,1,1,"25.0493187","121.5688828","GEOMETRIC_CENTER",4668853,874.283167612633,"松山站",200.411444612524,"交六"
"文山區","整層住家",26,"23000","2016-12-16 11:23:35","文山區興隆路二段203巷",0,0,0,0,0,0,0,0,0,0,1,0,0,0,0,1,0,1,0,"25.0021150","121.5481007","GEOMETRIC_CENTER",4754321,853.744863714768,"萬隆站",209.922495436407,"福興公園"
"中山區","整層住家",26,"28000","2016-12-16 11:20:53","中山區復興北路190巷25號",0,1,0,0,0,0,0,0,0,0,0,0,0,0,0,1,0,1,1,"25.0556790","121.5425840","ROOFTOP",4750977,436.938674238014,"南京復興站",81.0786586488204,"興安公園"
"大安區","獨立套房",14,"18000","2016-12-16 11:20:41","大安區復興南路二段",0,0,0,1,0,0,0,0,0,0,0,1,0,0,0,1,1,1,1,"25.0273218","121.5435743","GEOMETRIC_CENTER",4719503,134.055797473223,"科技大樓站",108.514880635839,"龍陣一號公園"
"大安區","獨立套房",6,"12000","2016-12-16 11:20:37","大安區復興南路二段",0,0,0,1,0,0,0,0,0,0,0,1,0,0,0,1,1,1,1,"25.0273218","121.5435743","GEOMETRIC_CENTER",4714581,134.055797473223,"科技大樓站",108.514880635839,"龍陣一號公園"
"內湖區","整層住家",32,"35000","2016-12-16 11:20:28","內湖區康寧路三段16巷",0,0,0,0,0,0,0,0,1,0,0,0,0,0,0,1,0,0,0,"25.0716869","121.6077432","GEOMETRIC_CENTER",4696528,128.990389608403,"葫洲站",347.729464452796,"康湖公園"
"大同區","雅房",5,"8000","2016-12-16 11:24:14","大同區長安西路78巷",1,0,0,0,0,0,0,0,0,0,0,0,0,1,1,1,0,1,1,"25.0498332","121.5191700","GEOMETRIC_CENTER",4682118,314.70173922921,"臺北車站",252.809531957623,"逸仙公園"
"內湖區","獨立套房",8,"10000","2016-12-16 11:24:14","內湖區金湖路15號",0,0,0,0,0,0,0,0,1,0,0,1,0,0,0,1,1,1,1,"25.0835306","121.5954566","ROOFTOP",4723964,990.296315969976,"大湖公園站",146.052698783627,"成功公園"
"萬華區","雅房",4,"5300","2016-12-16 11:24:21","萬華區長沙街二段115號",0,0,0,0,1,0,0,0,0,0,0,0,0,1,0,1,0,0,1,"25.0405250","121.5035610","ROOFTOP",4726159,449.863071198279,"西門站",158.905399846787,"萬華266號綠地"
"北投區","整層住家",28,"17000","2016-12-16 11:24:12","北投區大業路280巷9弄7號",0,0,0,0,0,0,0,1,0,0,0,0,0,0,0,0,0,0,0,"25.1276780","121.4985970","ROOFTOP",4705746,298.983863279796,"奇岩站",52.5041236023793,"北投167號綠地"
"北投區","整層住家",35,"34500","2016-12-16 11:24:18","北投區育仁路",0,0,0,0,0,0,0,1,0,0,0,0,0,0,0,1,1,1,1,"25.1347742","121.4995519","GEOMETRIC_CENTER",4702346,387.95877136627,"北投站",106.805924322674,"長安公園"
"中正區","獨立套房",4,"6000","2016-12-16 11:24:05","中正區汀州路一段340巷6弄9號",0,0,0,0,0,0,0,0,0,0,0,1,0,0,0,1,1,1,1,"25.0258093","121.5125704","ROOFTOP",4741399,961.177055277165,"中正紀念堂站",267.439140878085,"永昌公園"
"文山區","分租套房",6,"9000","2016-12-16 11:24:20","文山區興隆路三段207巷",0,0,0,0,0,0,0,0,0,0,1,0,1,0,0,1,1,1,1,"24.9948639","121.5612027","GEOMETRIC_CENTER",4648879,587.732838073375,"萬芳醫院站",41.3893007943474,"興家公園"
"中正區","整層住家",42,"45000","2016-12-16 11:24:21","中正區汀州路三段60巷",0,0,0,0,0,0,0,0,0,0,0,0,0,0,0,1,0,0,0,"25.0152360","121.5311586","GEOMETRIC_CENTER",4739991,259.461469746646,"臺電大樓站",142.182812986092,"文盛公園"
"士林區","雅房",8,"6000","2016-12-16 11:24:10","士林區福林路255巷",0,0,0,0,0,0,1,0,0,0,0,0,0,1,0,1,0,1,1,"25.0984651","121.5352312","APPROXIMATE",4730574,1060.56079908261,"士林站",84.0291257947743,"雙溪公園"
"北投區","獨立套房",16,"17500","2016-12-16 11:24:04","北投區溫泉路65巷",0,0,0,0,0,0,0,1,0,0,0,1,0,0,0,1,1,1,1,"25.1353484","121.5045727","GEOMETRIC_CENTER",4705607,262.834664911239,"新北投站",135.803107549528,"北投公園"
"文山區","雅房",8,"9000","2016-12-16 11:24:12","文山區興隆路三段112巷",0,0,0,0,0,0,0,0,0,0,1,0,0,1,0,0,1,1,1,"24.9987588","121.5571713","GEOMETRIC_CENTER",4671695,125.313880987027,"萬芳醫院站",297.80502172988,"景美30號綠地"
"文山區","分租套房",6,"11000","2016-12-16 11:24:21","文山區羅斯福路六段62號",0,0,0,0,0,0,0,0,0,0,1,0,1,0,0,1,1,1,1,"24.9988340","121.5399820","ROOFTOP",4736438,56.1159562828178,"萬隆站",241.189393231341,"景仁公園"
"內湖區","獨立套房",7,"9000","2016-12-16 11:24:10","內湖區內湖路三段59巷",0,0,0,0,0,0,0,0,1,0,0,1,0,0,0,1,1,1,1,"25.0857870","121.5919426","GEOMETRIC_CENTER",4717774,1033.51235712207,"文德站",143.946811313295,"碧山公園"
"大安區","雅房",8,"11500","2016-12-16 11:24:10","大安區泰順街50巷",0,0,0,1,0,0,0,0,0,0,0,0,0,1,0,1,0,1,1,"25.0231165","121.5303263","GEOMETRIC_CENTER",4720714,628.182355021227,"臺電大樓站",181.282469442807,"古風公園"
"大安區","整層住家",14.9,"25000","2016-12-16 11:19:42","大安區信義路三段",0,0,0,1,0,0,0,0,0,0,0,0,0,0,0,1,1,1,1,"25.0333853","121.5435159","GEOMETRIC_CENTER",4739221,43.3831548117047,"大安站",151.016542446296,"安祥公園"
"信義區","整層住家",85.1,"86000","2016-12-16 11:19:34","信義區基隆路一段",0,0,0,0,0,1,0,0,0,0,0,0,0,0,0,1,1,1,0,"25.0418853","121.5647410","GEOMETRIC_CENTER",4706600,148.197542301076,"市政府站",309.294289352652,"信義351號綠地"
"萬華區","整層住家",30,"27800","2016-12-16 11:18:26","萬華區中華路二段416巷",0,0,0,0,1,0,0,0,0,0,0,0,0,0,0,1,0,0,0,"25.0268511","121.5034108","GEOMETRIC_CENTER",4696239,1005.45425553157,"龍山寺站",314.796918659604,"青年公園"
"內湖區","獨立套房",6,"9600","2016-12-16 11:18:11","內湖區環山路一段59巷",0,0,0,0,0,0,0,0,1,0,0,1,0,0,0,1,1,1,1,"25.0859552","121.5680631","GEOMETRIC_CENTER",4751524,434.031771181591,"西湖站",101.974948919791,"仙樹公園"
"大安區","整層住家",13,"23000","2016-12-16 11:18:07","大安區市民大道四段124號",0,0,0,1,0,0,0,0,0,0,0,0,0,0,0,1,1,1,1,"25.0443765","121.5512511","ROOFTOP",4674229,309.348211535835,"忠孝敦化站",239.353950202047,"敦化公園"
"大安區","獨立套房",7,"11000","2016-12-16 11:18:28","大安區大安路一段19巷",0,0,0,1,0,0,0,0,0,0,0,1,0,0,0,1,1,1,1,"25.0444436","121.5472318","GEOMETRIC_CENTER",4740010,469.337567913896,"忠孝復興站",272.937802968435,"
"內湖區","整層住家",23,"38800","2016-12-16 11:18:26","內湖區民權東路六段146號",0,0,0,0,0,0,0,0,1,0,0,0,0,0,0,1,1,1,1,"25.0687702","121.5896792","ROOFTOP",4720202,624.507897929198,"內湖站",124.539813031355,NA
"內湖區","整層住家",15,"20000","2016-12-16 11:18:18","內湖區環山路一段60巷",0,0,0,0,0,0,0,0,1,0,0,0,0,0,0,1,1,1,1,"25.0870596","121.5663721","GEOMETRIC_CENTER",4385806,554.940831106529,"西湖站",119.853019454857,"西安公園"
"大同區","雅房",7,"7800","2016-12-16 11:18:03","大同區迪化街二段",1,0,0,0,0,0,0,0,0,0,0,0,0,1,0,1,1,1,1,"25.0686612","121.5109818","GEOMETRIC_CENTER",4738979,626.73630396804,"大橋頭站",127.636934202372,"大同公園"
"大安區","獨立套房",12.9,"21000","2016-12-16 11:18:17","大安區復興北路",0,0,0,1,0,0,0,0,0,0,0,1,0,0,0,1,1,1,1,"25.0570360","121.5442298","GEOMETRIC_CENTER",4742665,424.350068514947,"中山國中站",187.728426566137,"中華公園"
"大安區","獨立套房",5,"10000","2016-12-16 11:18:07","大安區復興南路二段156-2號",0,0,0,1,0,0,0,0,0,0,0,1,0,0,0,1,1,1,1,"25.0279514","121.5432399","ROOFTOP",2742854,204.39443800328,"科技大樓站",81.2553283956592,"龍陣一號公園"
"中山區","整層住家",42.6,"59800","2016-12-16 11:18:27","中山區中山北路一段83巷",0,1,0,0,0,0,0,0,0,0,0,0,0,0,0,1,1,1,1,"25.0502548","121.5230421","GEOMETRIC_CENTER",4698607,401.53819482757,"中山站",365.281725989536,"中山4號廣場"
"大安區","獨立套房",14.8,"22500","2016-12-16 11:18:10","大安區潮州街55巷",0,0,0,1,0,0,0,0,0,0,0,1,0,0,0,1,1,1,1,"25.0297475","121.5241322","GEOMETRIC_CENTER",4738970,420.345548195523,"古亭站",172.286155135987,"金山公園"
"內湖區","分租套房",5,"6300","2016-12-16 11:18:25","內湖區內湖路三段163巷",0,0,0,0,0,0,0,0,1,0,0,0,1,0,1,1,1,0,1,"25.0869944","121.5885475","GEOMETRIC_CENTER",4670384,988.399139293946,"文德站",123.218517949603,"金瑞公園"
"松山區","整層住家",23.5,"20000","2016-12-16 11:18:05","松山區光復南路13巷",0,0,1,0,0,0,0,0,0,0,0,0,0,0,0,0,0,0,0,"25.0477783","121.5591776","GEOMETRIC_CENTER",4733799,429.585807893913,"南京三民站",233.562504245403,"復盛公園(前名捐地公園)"
"北投區","整層住家",20,"22000","2016-12-16 11:18:06","北投區尊賢街243巷18號",0,0,0,0,0,0,0,1,0,0,0,0,0,0,0,1,1,1,1,"25.1169030","121.5063607","ROOFTOP",4706549,441.96289395266,"唭哩岸站",141.22581212279,"北投121號綠地"
"中山區","獨立套房",12,"18700","2016-12-16 11:18:16","中山區民生東路一段78號",0,1,0,0,0,0,0,0,0,0,0,1,0,0,0,1,1,1,1,"25.0579533","121.5266995","ROOFTOP",4738010,528.384037587547,"中山國小站",225.957454527854,"永盛公園"
"信義區","整層住家",50,"48000","2016-12-16 11:16:42","信義區逸仙路50巷",0,0,0,0,0,1,0,0,0,0,0,0,0,0,0,0,0,1,1,"25.0406352","121.5625555","GEOMETRIC_CENTER",4731039,348.339553985627,"市政府站",156.432950901889,"信義350綠地"
"中山區","整層住家",26,"26000","2016-12-16 11:12:26","中山區新生北路二段",0,1,0,0,0,0,0,0,0,0,0,0,0,0,0,1,1,1,1,"25.0575174","121.5274311","GEOMETRIC_CENTER",4747361,585.132608185705,"中山國小站",223.121841371009,"中原公園"
"萬華區","整層住家",51,"80000","2016-12-16 11:11:55","萬華區西園路80號",0,0,0,0,1,0,0,0,0,0,0,0,0,0,0,1,1,1,1,"25.0313338","121.4967317","ROOFTOP",4750571,538.778643488616,"龍山寺站",154.256693075379,"糖
"中正區","獨立套房",9.3,"15500","2016-12-16 11:12:25","中正區仁愛路二段",0,0,0,0,0,0,0,0,0,0,0,1,0,0,0,1,1,1,1,"25.0380990","121.5293551","GEOMETRIC_CENTER",4753605,452.338508024728,"東門站",183.590059041627,"文光公園"
"中山區","整層住家",21.3,"27000","2016-12-16 11:12:19","中山區林森北路138巷",0,1,0,0,0,0,0,0,0,0,0,0,0,0,0,0,0,0,0,"25.0514770","121.5251763","GEOMETRIC_CENTER",4735197,512.906056361667,"中山站",118.841362167785,"林森公園"
"萬華區","整層住家",27,"33000","2016-12-16 11:12:28","萬華區大理街",0,0,0,0,1,0,0,0,0,0,0,0,0,0,0,0,1,1,0,"25.0343787","121.4986864","GEOMETRIC_CENTER",4720629,152.498343987265,"龍山寺站",107.265099864537,"寺前公園"
"士林區","獨立套房",6,"11000","2016-12-16 11:12:28","士林區中山北路五段505巷",0,0,0,0,0,0,1,0,0,0,0,1,0,0,0,1,1,1,1,"25.0929817","121.5269796","GEOMETRIC_CENTER",4738625,97.5689425319162,"士林站",117.853214210517,"209號綠地"
"信義區","獨立套房",8,"13500","2016-12-16 11:12:17","信義區永吉路30巷",0,0,0,0,0,1,0,0,0,0,0,1,0,0,0,1,1,1,0,"25.0431677","121.5687547","GEOMETRIC_CENTER",4720656,360.449705508321,"市政府站",71.3258912521023,"厚生廣場"
"南港區","分租套房",7,"8500","2016-12-16 11:12:27","南港區興南街",0,0,0,0,0,0,0,0,0,1,0,0,1,0,0,1,1,1,1,"25.0559188","121.6008969","GEOMETRIC_CENTER",4753811,715.607317621974,"南港站",178.923316639553,"重陽公園"
"大安區","獨立套房",10,"23000","2016-12-16 11:12:28","大安區師大路60號",0,0,0,1,0,0,0,0,0,0,0,1,0,0,0,1,1,1,1,"25.0245266","121.5281990","ROOFTOP",4702911,561.563240090419,"古亭站",19.0861045483788,"師大公園"
"內湖區","整層住家",50,"45000","2016-12-16 11:12:09","內湖區民權東路六段",0,0,0,0,0,0,0,0,1,0,0,0,0,0,0,1,0,0,1,"25.0690883","121.5892020","GEOMETRIC_CENTER",4727531,618.609912712853,"內湖站",172.008447027152,NA
"士林區","獨立套房",8,"13500","2016-12-16 11:12:25","士林區忠誠路二段118巷",0,0,0,0,0,0,1,0,0,0,0,1,0,0,0,1,1,1,1,"25.1139098","121.5309226","GEOMETRIC_CENTER",4715712,1303.39869656965,"明德站",348.932151749212,"天和一號公園"
"中山區","獨立套房",13,"32000","2016-12-16 11:12:23","中山區松江路100巷",0,1,0,0,0,0,0,0,0,0,0,1,0,0,0,1,1,1,1,"25.0510088","121.5328592","APPROXIMATE",4691731,27.0307869438753,"松江南京站",81.7159773076185,"松江公園"
"士林區","整層住家",88,"190000","2016-12-16 11:12:05","士林區中山北路六段405巷",0,0,0,0,0,0,1,0,0,0,0,0,0,0,0,1,1,1,1,"25.1154154","121.5266456","GEOMETRIC_CENTER",4750513,1009.81426370744,"明德站",22.7874118418476,"士林79號綠地"
"中山區","獨立套房",6,"12000","2016-12-16 11:12:05","中山區長春路",0,1,0,0,0,0,0,0,0,0,0,1,0,0,0,1,1,1,1,"25.0548092","121.5334969","GEOMETRIC_CENTER",4671679,406.175167209395,"松江南京站",203.327583657184,"四平公園"
"中正區","獨立套房",6,"11000","2016-12-16 11:12:18","中正區金門街9-14號",0,0,0,0,0,0,0,0,0,0,0,1,0,0,0,1,1,1,1,"25.0225241","121.5242531","ROOFTOP",4706524,423.710907929855,"古亭站",399.794574269058,"古莊公園"
"北投區","整層住家",15.9,"32000","2016-12-16 11:12:29","北投區致遠一路一段",0,0,0,0,0,0,0,1,0,0,0,0,0,0,0,1,1,1,1,"25.1087374","121.5160369","GEOMETRIC_CENTER",4711935,303.737626749049,"明德站",298.963650736583,"致遠公園"
"大安區","整層住家",28,"48000","2016-12-16 11:18:18","大安區泰順街60巷26號",0,0,0,1,0,0,0,0,0,0,0,0,0,0,0,1,1,1,1,"25.0223157","121.5295427","ROOFTOP",4754428,561.689117605035,"臺電大樓站",62.8568123154319,"古風公園"
"大安區","整層住家",39.2,"36000","2016-12-16 11:07:36","大安區新生南路一段160巷",0,0,0,1,0,0,0,0,0,0,0,0,0,0,0,1,0,0,0,"25.0387649","121.5328356","GEOMETRIC_CENTER",4753625,411.603002595369,"忠孝新生站",202.591120144779,"文光公園"
"中山區","整層住家",17,"26000","2016-12-16 11:07:20","中山區明水路",0,1,0,0,0,0,0,0,0,0,0,0,0,0,0,1,1,1,1,"25.0774700","121.5457086","GEOMETRIC_CENTER",4744163,253.279624837646,"大直站",190.432466309538,"永安公園"
"中正區","整層住家",25,"25000","2016-12-16 11:06:48","中正區廈門街66巷6號",0,0,0,0,0,0,0,0,0,0,0,0,0,0,1,1,1,1,1,"25.0249330","121.5169410","ROOFTOP",4728080,617.937097545822,"古亭站",201.354854096919,"螢橋公園"
"信義區","分租套房",7,"11000","2016-12-16 11:06:20","信義區基隆路一段380巷16號",0,0,0,0,0,1,0,0,0,0,0,0,1,0,0,1,1,1,1,"25.0346057","121.5593974","ROOFTOP",4720572,419.211222077672,"台北101/世貿中心站",40.218678666016,"中興公園"
"萬華區","獨立套房",9,"15000","2016-12-16 11:06:19","萬華區昆明街58號",0,0,0,0,1,0,0,0,0,0,0,1,0,0,0,1,1,1,1,"25.0462109","121.5055189","ROOFTOP",4741355,503.934512574452,"西門站",42.4473490725133,"福星公園"
"內湖區","整層住家",29.7,"21000","2016-12-16 11:06:19","內湖區安康路434巷",0,0,0,0,0,0,0,0,1,0,0,0,0,0,0,1,0,1,1,"25.0664890","121.6153628","GEOMETRIC_CENTER",4714051,374.267033184653,"東湖站",90.9397103581579,"五分公園"
"信義區","分租套房",5,"13000","2016-12-16 11:06:14","信義區光復南路415巷",0,0,0,0,0,1,0,0,0,0,0,0,1,0,0,1,0,1,1,"25.0371509","121.5592118","GEOMETRIC_CENTER",4576338,254.926645081162,"國父紀念館站",320.723457833724,"中興公園"
"內湖區","獨立套房",8,"11000","2016-12-16 11:06:14","內湖區東湖路43巷",0,0,0,0,0,0,0,0,1,0,0,1,0,0,0,1,1,1,1,"25.0698165","121.6136458","GEOMETRIC_CENTER",4704151,357.058896966276,"東湖站",216.792914726302,"安湖三號公園"
"中山區","整層住家",24,"17000","2016-12-16 11:06:16","中山區林森北路119巷",0,1,0,0,0,0,0,0,0,0,0,0,0,0,0,1,0,0,1,"25.0503291","121.5268227","GEOMETRIC_CENTER",4662335,604.907698710797,"松江南京站",219.9605420729,"吉林公園"
"中山區","獨立套房",8,"13500","2016-12-16 11:06:36","中山區中山北路二段36巷",0,1,0,0,0,0,0,0,0,0,0,1,0,0,0,1,1,1,1,"25.0543318","121.5216225","GEOMETRIC_CENTER",4679834,204.824563136136,"中山站",221.582706935568,"中山4號廣場"
"內湖區","獨立套房",6.5,"10500","2016-12-16 11:06:27","內湖區康樂街",0,0,0,0,0,0,0,0,1,0,0,1,0,0,1,1,1,1,1,"25.0833832","121.6240522","GEOMETRIC_CENTER",4705181,1894.91034920272,"大湖公園站",1005.05564109607,"康樂綠地"
"信義區","獨立套房",13,"19500","2016-12-16 11:06:25","信義區永吉路",0,0,0,0,0,1,0,0,0,0,0,1,0,0,0,1,1,1,1,"25.0454982","121.5741911","GEOMETRIC_CENTER",4301941,585.449652403137,"永春站",169.964708496014,"四育公園"
"中山區","獨立套房",7,"13500","2016-12-16 11:06:30","中山區吉林路",0,1,0,0,0,0,0,0,0,0,0,1,0,0,0,1,1,1,1,"25.0581536","121.5302038","GEOMETRIC_CENTER",4744234,347.282908490907,"行天宮站",259.016895904367,"中吉公園"
"松山區","獨立套房",15,"27000","2016-12-16 11:06:19","松山區南京東路四段17號",0,0,1,0,0,0,0,0,0,0,0,1,0,0,0,1,1,1,1,"25.0519269","121.5500760","ROOFTOP",4686361,89.3976711437005,"台北小巨蛋站",394.449883274125,"美仁一號公園"
"信義區","獨立套房",13.3,"22000","2016-12-16 11:06:30","信義區忠孝東路五段",0,0,0,0,0,1,0,0,0,0,0,1,0,0,0,1,1,1,1,"25.0410009","121.5732799","GEOMETRIC_CENTER",4696897,334.835312354302,"永春站",158.630204195091,"富台公園"
"文山區","整層住家",51.7,"41000","2016-12-16 11:06:06","文山區羅斯福路六段469巷",0,0,0,0,0,0,0,0,0,0,1,0,0,0,0,1,0,1,0,"24.9897800","121.5403959","GEOMETRIC_CENTER",4735182,418.940208153836,"景美站",388.455898048121,"景行公園"
"大安區","獨立套房",5,"10000","2016-12-16 11:06:33","大安區泰順街38巷",0,0,0,1,0,0,0,0,0,0,0,1,0,0,0,1,1,1,1,"25.0246515","121.5305789","GEOMETRIC_CENTER",4705241,789.782252756594,"古亭站",107.090050522885,"泰順公園"
"南港區","獨立套房",8,"15000","2016-12-16 11:06:14","南港區同德路",0,0,0,0,0,0,0,0,0,1,0,1,0,0,0,1,1,1,1,"25.0457998","121.5852599","GEOMETRIC_CENTER",4717968,288.334852925768,"後山埤站",95.8291316438439,"萬福公園"
"大同區","獨立套房",5,"9900","2016-12-16 11:06:25","大同區雙連街",1,0,0,0,0,0,0,0,0,0,0,1,0,0,0,1,1,1,1,"25.0588820","121.5189927","GEOMETRIC_CENTER",4703267,195.675842353394,"雙連站",216.996961746866,"民享公園"
"中山區","整層住家",54.8,"69000","2016-12-16 11:01:00","中山區長安東路二段",0,1,0,0,0,0,0,0,0,0,0,0,0,0,0,1,1,1,1,"25.0483902","121.5367162","GEOMETRIC_CENTER",4735371,510.426059302239,"松江南京站",202.12187897743,"建興公園"
"松山區","獨立套房",7,"14500","2016-12-16 11:00:41","松山區八德路三段12巷",0,0,1,0,0,0,0,0,0,0,0,1,0,0,0,1,1,1,1,"25.0464804","121.5507157","GEOMETRIC_CENTER",4752189,549.093871703013,"忠孝敦化站",25.029177733636,"敦化公園"
"南港區","分租套房",8,"9500","2016-12-16 11:00:41","南港區東明街85號",0,0,0,0,0,0,0,0,0,1,0,0,1,0,0,1,1,1,1,"25.0547697","121.6015677","ROOFTOP",4689749,587.90831143775,"南港站",104.539893639823,"東明綠地"
"士林區","獨立套房",7,"6500","2016-12-16 11:00:48","士林區文林路",0,0,0,0,0,0,1,0,0,0,0,1,0,0,0,1,1,1,1,"25.0950704","121.5246149","GEOMETRIC_CENTER",4738955,235.990937153328,"士林站",236.939418276394,"華聲公園"
"大同區","獨立套房",7,"9000","2016-12-16 11:00:56","大同區延平北路二段",1,0,0,0,0,0,0,0,0,0,0,1,0,0,0,1,1,1,1,"25.0583047","121.5114935","GEOMETRIC_CENTER",4723788,564.766483935627,"大橋頭站",120.000985806694,"大稻埕公園"
"士林區","整層住家",44.3,"80000","2016-12-16 11:00:35","士林區文林路",0,0,0,0,0,0,1,0,0,0,0,0,0,0,0,1,1,1,1,"25.0950704","121.5246149","GEOMETRIC_CENTER",4737597,235.990937153328,"士林站",236.939418276394,"華聲公園"
"中山區","獨立套房",12,"15000","2016-12-16 11:00:31","中山區長春路61巷20號",0,1,0,0,0,0,0,0,0,0,0,1,0,0,0,1,1,1,1,"25.0559593","121.5263220","ROOFTOP",4713925,615.896078282453,"雙連站",229.316785809879,"中原公園"
"內湖區","獨立套房",6,"11500","2016-12-16 11:01:08","內湖區江南街71巷16弄34號",0,0,0,0,0,0,0,0,1,0,0,1,0,0,0,1,1,1,1,"25.0756106","121.5775487","ROOFTOP",4707297,551.147046986433,"港墘站",72.297525982473,"文德 3 號公園"
"信義區","整層住家",40.2,"68000","2016-12-16 11:01:00","信義區基隆路一段101巷",0,0,0,0,0,1,0,0,0,0,0,0,0,0,0,1,1,1,1,"25.0448709","121.5677672","GEOMETRIC_CENTER",4701336,452.822147232003,"市政府站",122.601588732035,"革新公園"
"大安區","整層住家",39.3,"55000","2016-12-16 11:00:40","大安區四維路208巷",0,0,0,1,0,0,0,0,0,0,0,0,0,0,0,1,1,1,1,"25.0263050","121.5477864","GEOMETRIC_CENTER",4747488,439.178537401702,"科技大樓站",42.3659804135312,"鳳雛公園"
"大安區","獨立套房",6,"9500","2016-12-16 11:00:31","大安區忠孝東路三段",0,0,0,1,0,0,0,0,0,0,0,1,0,0,0,1,1,1,1,"25.0417726","121.5382163","GEOMETRIC_CENTER",4750093,506.430808135007,"忠孝新生站",283.168051937996,"誠安公園"
"北投區","雅房",6,"7500","2016-12-16 11:01:00","北投區致遠一路二段",0,0,0,0,0,0,0,1,0,0,0,0,0,1,0,1,0,1,1,"25.1122235","121.5135297","GEOMETRIC_CENTER",4679663,327.665201504426,"石牌站",186.412798692534,"致遠公園"
"松山區","分租套房",7,"12500","2016-12-16 11:00:43","松山區忠孝東路五段790巷59弄29號",0,0,1,0,0,0,0,0,0,0,0,0,1,0,0,1,1,1,1,"25.0408867","121.5846250","ROOFTOP",4709193,510.088088696251,"後山埤站",205.112603039887,"玉成公園"
"信義區","整層住家",47.9,"60000","2016-12-16 11:00:53","信義區永吉路30巷",0,0,0,0,0,1,0,0,0,0,0,0,0,0,0,1,1,1,1,"25.0431677","121.5687547","GEOMETRIC_CENTER",4701454,360.449705508321,"市政府站",71.3258912521023,"厚生廣場"
"中山區","獨立套房",8,"11500","2016-12-16 11:00:33","中山區長春路20號",0,1,0,0,0,0,0,0,0,0,0,1,0,0,0,1,1,1,1,"25.0548420","121.5237849","ROOFTOP",4738583,408.852233644198,"中山站",184.616755184859,"中安公園"
"中正區","整層住家",16.8,"46000","2016-12-16 11:01:00","中正區臨沂街19巷",0,0,0,0,0,0,0,0,0,0,0,0,0,0,0,1,1,1,1,"25.0417771","121.5313794","GEOMETRIC_CENTER",4735493,202.693554998191,"忠孝新生站",64.8757934143075,"忠孝公園"
"中山區","獨立套房",13.2,"24000","2016-12-16 11:00:54","中山區新生北路二段68巷",0,1,0,0,0,0,0,0,0,0,0,1,0,0,0,1,1,1,1,"25.0566176","121.5264154","GEOMETRIC_CENTER",4750231,603.291754232926,"雙連站",237.006944096987,"中原公園"
"內湖區","整層住家",54.5,"60000","2016-12-16 11:01:08","內湖區內湖路一段1巷",0,0,0,0,0,0,0,0,1,0,0,0,0,0,0,1,0,1,0,"25.0852350","121.5581226","GEOMETRIC_CENTER",4752262,258.654058414248,"劍南路站",185.872695234081,"敬業公園"
"信義區","整層住家",83.4,"130000","2016-12-16 11:00:51","信義區逸仙路",0,0,0,0,0,1,0,0,0,0,0,0,0,0,0,1,0,1,1,"25.0394747","121.5615447","GEOMETRIC_CENTER",4730636,387.273827437226,"國父紀念館站",106.936594498282,"信義350綠地"
"中正區","整層住家",53,"90000","2016-12-16 11:00:42","中正區南昌路一段",0,0,0,0,0,0,0,0,0,0,0,0,0,0,0,1,1,1,1,"25.0314524","121.5170392","GEOMETRIC_CENTER",4699297,188.697574096365,"中正紀念堂站",527.237267338116,"螢橋公園"
"中正區","獨立套房",8,"18000","2016-12-16 11:00:50","中正區羅斯福路四段40巷",0,0,0,0,0,0,0,0,0,0,0,1,0,0,0,1,1,1,1,"25.0152100","121.5336540","ROOFTOP",4746220,346.749770356104,"臺電大樓站",188.059924142822,"文盛公園"
"大同區","整層住家",18,"27000","2016-12-16 11:00:57","大同區重慶北路二段46巷18號",1,0,0,0,0,0,0,0,0,0,0,0,0,0,0,1,1,1,1,"25.0552160","121.5135450","ROOFTOP",4740522,732.015829185937,"中山站",309.988485171569,"歸綏公園"
"文山區","獨立套房",6,"12000","2016-12-16 11:00:48","文山區興隆路三段304巷32號",0,0,0,0,0,0,0,0,0,0,1,1,0,0,0,1,1,1,1,"24.9960307","121.5551266","ROOFTOP",4687758,485.722193266897,"萬芳醫院站",335.743616235071,"景美29號綠地"
"士林區","獨立套房",5,"7500","2016-12-16 11:01:02","士林區延平北路五段163巷29弄37號",0,0,0,0,0,0,1,0,0,0,0,1,0,0,0,1,1,0,1,"25.0820377","121.5089624","ROOFTOP",4693074,1637.02263065019,"圓山站",111.112425576741,"海光公園"
"中山區","獨立套房",10,"26000","2016-12-16 11:00:37","中山區松江路77巷2號",0,1,0,0,0,0,0,0,0,0,0,1,0,0,0,1,1,1,1,"25.0496652","121.5333773","ROOFTOP",4688413,185.267792046714,"松江南京站",121.299059959879,"松江公園"
"北投區","整層住家",30.3,"62000","2016-12-16 11:00:44","北投區裕民二路",0,0,0,0,0,0,0,1,0,0,0,0,0,0,0,1,1,1,1,"25.1153908","121.5168933","GEOMETRIC_CENTER",4737405,165.589718158371,"石牌站",143.598903046586,"北投98號綠地"
"信義區","整層住家",32.7,"80000","2016-12-16 11:00:42","信義區忠孝東路五段",0,0,0,0,0,1,0,0,0,0,0,0,0,0,0,1,1,1,1,"25.0410009","121.5732799","GEOMETRIC_CENTER",4691127,334.835312354302,"永春站",158.630204195091,"富台公園"
"松山區","整層住家",33,"32000","2016-12-16 11:00:40","松山區八德路四段",0,0,1,0,0,0,0,0,0,0,0,0,0,0,0,1,0,1,0,"25.0493187","121.5688828","GEOMETRIC_CENTER",4612408,874.283167612633,"松山站",200.411444612524,"交六"
"中山區","分租套房",5,"8900","2016-12-16 11:00:54","中山區八德路二段312巷",0,1,0,0,0,0,0,0,0,0,0,0,1,0,0,1,1,1,1,"25.0462089","121.5430394","GEOMETRIC_CENTER",4678194,515.086001991121,"忠孝復興站",249.274438909051,"朱厝崙公園"
"大安區","整層住家",31,"42000","2016-12-16 10:57:24","大安區仁愛路四段",0,0,0,1,0,0,0,0,0,0,0,0,0,0,0,1,1,0,1,"25.0378559","121.5505691","GEOMETRIC_CENTER",4700771,433.293203513198,"忠孝敦化站",93.1326678199804,"仁愛圓環"
"信義區","整層住家",15.2,"23000","2016-12-16 11:00:28","信義區基隆路一段101巷2號",0,0,0,0,0,1,0,0,0,0,0,0,0,0,0,1,1,1,1,"25.0449909","121.5674324","ROOFTOP",4702343,452.941939321263,"市政府站",129.383975691782,"革新公園"
"大安區","整層住家",17.9,"18000","2016-12-16 11:00:27","大安區瑞安街",0,0,0,1,0,0,0,0,0,0,0,0,0,0,0,0,0,0,0,"25.0289738","121.5417450","GEOMETRIC_CENTER",4754356,360.232418849976,"科技大樓站",80.7769021325465,"龍陣二號公園"
"中山區","整層住家",30,"24800","2016-12-16 11:00:09","中山區龍江路356巷",0,1,0,0,0,0,0,0,0,0,0,0,0,0,0,1,1,1,1,"25.0659972","121.5396492","GEOMETRIC_CENTER",4741305,735.907704493193,"中山國中站",288.241386761496,"下埤公園"
"文山區","整層住家",51.2,"45000","2016-12-16 11:00:06","文山區羅斯福路六段148號",0,0,0,0,0,0,0,0,0,0,1,0,0,0,0,0,0,0,0,"24.9953720","121.5409800","ROOFTOP",4746870,206.374703700953,"景美站",74.8981852798773,"景福公園"
"信義區","分租套房",6.5,"9500","2016-12-16 11:00:24","信義區永吉路4號",0,0,0,0,0,1,0,0,0,0,0,0,1,0,0,1,1,1,1,"25.0455250","121.5675170","ROOFTOP",4703102,512.043507152653,"市政府站",189.268061696504,"革新公園"
"大安區","分租套房",4,"8000","2016-12-16 11:00:22","大安區建國南路二段334巷9號",0,0,0,1,0,0,0,0,0,0,0,0,1,0,0,1,1,1,1,"25.0232490","121.5366560","ROOFTOP",4720055,755.167512288507,"科技大樓站",112.5700412018,"龍門公園"
"大安區","獨立套房",14,"19500","2016-12-16 11:00:17","大安區忠孝東路四段101巷",0,0,0,1,0,0,0,0,0,0,0,1,0,0,0,1,1,1,1,"25.0433218","121.5480875","GEOMETRIC_CENTER",3233054,406.550387603321,"忠孝敦化站",259.451408279761,"
"文山區","獨立套房",12,"14000","2016-12-16 11:00:19","文山區木柵路二段7巷",0,0,0,0,0,0,0,0,0,0,1,1,0,0,0,1,1,1,1,"24.9892440","121.5590483","GEOMETRIC_CENTER",4720569,1132.52434139862,"萬芳醫院站",234.666238607554,"明義公園"
"中山區","整層住家",60.8,"88000","2016-12-16 11:00:26","中山區錦西街",0,1,0,0,0,0,0,0,0,0,0,0,0,0,0,0,1,1,1,"25.0603303","121.5214402","GEOMETRIC_CENTER",2289464,283.241044499688,"雙連站",126.930139617317,"民享公園"
"松山區","獨立套房",5,"10000","2016-12-16 11:00:28","松山區南京東路五段",0,0,1,0,0,0,0,0,0,0,0,1,0,0,0,1,1,1,1,"25.0514899","121.5639560","GEOMETRIC_CENTER",4728319,353.887214172451,"南京三民站",106.933722485872,"吉祥公園"
"中山區","整層住家",24,"26000","2016-12-16 11:00:23","中山區新生北路三段",0,1,0,0,0,0,0,0,0,0,0,0,0,0,0,1,1,1,1,"25.0666336","121.5279828","GEOMETRIC_CENTER",4711946,466.181160868442,"中山國小站",178.031779795085,"新祿公園"
"文山區","整層住家",10,"13000","2016-12-16 11:00:17","文山區景興路97巷",0,0,0,0,0,0,0,0,0,0,1,0,0,0,1,1,0,0,0,"24.9954665","121.5453183","GEOMETRIC_CENTER",4747356,503.006867029928,"景美站",157.237666919292,"景華公園"
"士林區","獨立套房",8,"10000","2016-12-16 10:52:11","士林區延平北路五段136巷",0,0,0,0,0,0,1,0,0,0,0,1,0,0,0,1,1,1,1,"25.0822270","121.5113606","GEOMETRIC_CENTER",4737118,1413.92240105155,"劍潭站",26.9817864267297,"福順公園"
"中山區","獨立套房",24,"27000","2016-12-16 10:51:20","中山區中山北路三段",0,1,0,0,0,0,0,0,0,0,0,1,0,0,0,1,1,1,1,"25.0691335","121.5231619","GEOMETRIC_CENTER",4733314,394.013636887402,"圓山站",182.007360632786,"花博公園美術園區"
"北投區","整層住家",50,"28000","2016-12-16 10:54:17","北投區中央北路四段110巷",0,0,0,0,0,0,0,1,0,0,0,0,0,0,0,1,1,1,1,"25.1297771","121.4714062","GEOMETRIC_CENTER",4717767,232.311417204883,"忠義站",536.48867581234,"學園公園"
"中山區","獨立套房",15,"13500","2016-12-16 10:54:21","中山區雙城街25巷",0,1,0,0,0,0,0,0,0,0,0,1,0,0,0,1,1,1,1,"25.0662204","121.5242993","GEOMETRIC_CENTER",4735553,447.025376042767,"中山國小站",124.520409654332,"雙城公園"
"大安區","分租套房",8,"13500","2016-12-16 10:54:09","大安區建國南路二段151巷",0,0,0,1,0,0,0,0,0,0,0,0,1,0,0,1,1,1,1,"25.0287454","121.5386505","GEOMETRIC_CENTER",4633857,564.137710907234,"科技大樓站",195.068530462397,"新龍公園"
"士林區","整層住家",26,"23000","2016-12-16 10:54:19","士林區社子街22巷67號",0,0,0,0,0,0,1,0,0,0,0,0,0,0,0,0,0,0,0,"25.0865087","121.5055263","ROOFTOP",4672084,1979.47934682025,"劍潭站",431.96011639772,"士林139號綠地"
"大安區","獨立套房",10,"28000","2016-12-16 10:54:10","大安區忠孝東路四段",0,0,0,1,0,0,0,0,0,0,0,1,0,0,0,1,1,1,1,"25.0415608","121.5506930","GEOMETRIC_CENTER",4688366,97.2805003641392,"忠孝敦化站",373.640738277129,"大安398號綠地"
"萬華區","獨立套房",12.6,"19000","2016-12-16 10:54:19","萬華區西寧南路",0,0,0,0,1,0,0,0,0,0,0,1,0,0,0,1,1,1,1,"25.0432344","121.5060751","GEOMETRIC_CENTER",4723927,202.251618362766,"西門站",316.096403610237,"福星公園"
"士林區","獨立套房",8,"8800","2016-12-16 10:54:09","士林區延平北路六段",0,0,0,0,0,0,1,0,0,0,0,1,0,0,0,1,1,1,1,"25.0901391","121.5020092","GEOMETRIC_CENTER",4698419,2118.81892766393,"三和國中站",83.8453191596282,"士林130號綠地"
"士林區","整層住家",55,"78000","2016-12-16 10:54:16","士林區中庸一路",0,0,0,0,0,0,1,0,0,0,0,0,0,0,0,0,0,0,0,"25.1325220","121.5506819","GEOMETRIC_CENTER",4672805,4067.67155163448,"石牌站",658.060681118664,"士林4號綠地"
"中正區","整層住家",11,"25000","2016-12-16 10:54:20","中正區寧波東街",0,0,0,0,0,0,0,0,0,0,0,0,0,0,0,1,1,1,1,"25.0321105","121.5198333","GEOMETRIC_CENTER",4727689,172.055913465938,"中正紀念堂站",522.572288583714,"金山公園"
"內湖區","分租套房",7,"11000","2016-12-16 10:54:10","內湖區文湖街21巷",0,0,0,0,0,0,0,0,1,0,0,0,1,0,0,1,1,1,1,"25.0889922","121.5601118","GEOMETRIC_CENTER",4677854,648.039360649244,"劍南路站",135.468358401223,"九華公園"
"士林區","整層住家",34,"42000","2016-12-16 10:54:04","士林區天母東路22巷23號",0,0,0,0,0,0,1,0,0,0,0,0,0,0,0,1,1,0,0,"25.1169253","121.5325375","RANGE_INTERPOLATED",4675014,1596.04013884172,"明德站",19.5548045488793,"天福綠地"
"大同區","整層住家",26,"23000","2016-12-16 10:54:21","大同區延平北路二段213號",1,0,0,0,0,0,0,0,0,0,0,0,0,0,0,0,0,0,0,"25.0598120","121.5115460","ROOFTOP",4693065,401.118316529057,"大橋頭站",174.667880162903,"大稻埕公園"
"信義區","獨立套房",7,"13000","2016-12-16 10:54:22","信義區中坡南路",0,0,0,0,0,1,0,0,0,0,0,1,0,0,0,1,1,1,1,"25.0407017","121.5849861","GEOMETRIC_CENTER",4685441,544.514609284311,"後山埤站",212.179472410588,"玉成公園"
"士林區","獨立套房",6,"8800","2016-12-16 10:54:21","士林區社子街",0,0,0,0,0,0,1,0,0,0,0,1,0,0,0,1,1,1,1,"25.0874306","121.5068806","GEOMETRIC_CENTER",4745128,1856.50177952772,"劍潭站",338.263024126113,"社子公園"
"南港區","整層住家",64,"42000","2016-12-16 10:49:31","南港區園區街",0,0,0,0,0,0,0,0,0,1,0,0,0,0,0,0,0,0,0,"25.0590731","121.6125534","GEOMETRIC_CENTER",4724676,353.880603176954,"南港軟體園區站",168.130393756516,"南港65號園區綠地"
"信義區","整層住家",22,"22000","2016-12-16 10:48:39","信義區基隆路一段35巷",0,0,0,0,0,1,0,0,0,0,0,0,0,0,0,1,1,1,1,"25.0480015","121.5695954","GEOMETRIC_CENTER",4754217,827.153536507465,"松山站",195.944255618534,"交六"
"萬華區","分租套房",6.6,"8000","2016-12-16 10:46:35","萬華區雅江街",0,0,0,0,1,0,0,0,0,0,0,0,1,0,0,1,1,1,1,"25.0426931","121.5015000","GEOMETRIC_CENTER",2965525,624.449395330204,"西門站",207.443152308963,"長沙公園"
"中山區","整層住家",53.2,"75000","2016-12-16 10:48:24","中山區民權東路三段",0,1,0,0,0,0,0,0,0,0,0,0,0,0,0,1,1,1,1,"25.0624545","121.5406696","GEOMETRIC_CENTER",4724109,400.740602163891,"中山國中站",27.6785037067886,"榮星花園公園"
"內湖區","整層住家",48,"39000","2016-12-16 10:48:18","內湖區金湖路",0,0,0,0,0,0,0,0,1,0,0,0,0,0,0,1,0,1,0,"25.0784590","121.5999571","GEOMETRIC_CENTER",4715790,736.626578950726,"大湖公園站",335.139059102848,"麗湖綠地"
"北投區","整層住家",30,"30000","2016-12-16 10:48:14","北投區中央北路四段354巷12號",0,0,0,0,0,0,0,1,0,0,0,0,0,0,0,1,1,1,1,"25.1303453","121.4712112","RANGE_INTERPOLATED",4693682,218.004823246451,"忠義站",541.664137500214,"學園公園"
"大同區","整層住家",37,"34000","2016-12-16 10:48:10","大同區承德路二段91巷",1,0,0,0,0,0,0,0,0,0,0,0,0,0,0,1,1,1,1,"25.0562064","121.5189291","GEOMETRIC_CENTER",4735492,253.1942491347,"雙連站",245.918752489813,"建成公園"
"中正區","雅房",6,"7700","2016-12-16 10:48:11","中正區潮州街",0,0,0,0,0,0,0,0,0,0,0,0,0,1,0,1,1,1,1,"25.0296583","121.5213064","GEOMETRIC_CENTER",4735530,424.801357136617,"古亭站",335.08776411966,"南昌公園"
"大安區","分租套房",7,"11000","2016-12-16 10:48:17","大安區通化街180巷13號",0,0,0,1,0,0,0,0,0,0,0,0,1,0,0,1,1,1,1,"25.0276648","121.5526621","ROOFTOP",4696331,453.920709743212,"六張犁站",87.9586700218157,"法治公園"
"大同區","獨立套房",7,"10000","2016-12-16 10:48:17","大同區長安西路85巷",1,0,0,0,0,0,0,0,0,0,0,1,0,0,0,1,1,1,1,"25.0516539","121.5137491","GEOMETRIC_CENTER",4654107,478.76398639448,"北門站",287.327232941107,"大同24廣場"
"北投區","獨立套房",12,"15800","2016-12-16 10:48:02","北投區泉源路39-37號",0,0,0,0,0,0,0,1,0,0,0,1,0,0,0,1,1,1,1,"25.1412820","121.5081040","ROOFTOP",4732960,731.774552880476,"新北投站",120.062468645755,"48號泉源公園"
"士林區","雅房",6,"4500","2016-12-16 10:48:08","士林區福國路",0,0,0,0,0,0,1,0,0,0,0,0,0,1,0,1,1,1,1,"25.1020274","121.5234816","GEOMETRIC_CENTER",4678452,150.744562186597,"芝山站",215.612634580957,"德仁公園"
"中山區","整層住家",20,"27000","2016-12-16 10:48:16","中山區新生北路二段",0,1,0,0,0,0,0,0,0,0,0,0,0,0,0,1,1,1,1,"25.0575174","121.5274311","GEOMETRIC_CENTER",4714580,585.132608185705,"中山國小站",223.121841371009,"中原公園"
"中山區","雅房",3,"5000","2016-12-16 10:48:24","中山區龍江路356巷44號",0,1,0,0,0,0,0,0,0,0,0,0,0,1,0,1,0,1,1,"25.0658220","121.5391970","ROOFTOP",4674556,750.833094464106,"中山國中站",337.834998187476,"下埤公園"
"北投區","整層住家",27.5,"22000","2016-12-16 10:48:02","北投區光明路",0,0,0,0,0,0,0,1,0,0,0,0,0,0,0,1,0,0,0,"25.1360959","121.5057081","GEOMETRIC_CENTER",4700500,322.364988880081,"新北投站",98.681564618384,"天狗庵史蹟公園"
"士林區","整層住家",24.5,"23500","2016-12-16 10:41:22","士林區承德路四段",0,0,0,0,0,0,1,0,0,0,0,0,0,0,0,1,0,1,0,"25.0853394","121.5232805","GEOMETRIC_CENTER",4752680,188.417207819399,"劍潭站",119.806810820329,"士林128號綠地"
"萬華區","獨立套房",8,"12000","2016-12-16 10:40:47","萬華區康定路172巷",0,0,0,0,1,0,0,0,0,0,0,1,0,0,0,1,1,1,1,"25.0393123","121.5011446","GEOMETRIC_CENTER",4746582,468.267583803709,"龍山寺站",183.495223167746,"老松公園"
"萬華區","獨立套房",6,"9200","2016-12-16 10:42:18","萬華區西園路一段72巷9號",0,0,0,0,1,0,0,0,0,0,0,1,0,0,0,1,1,1,1,"25.0395272","121.4990664","ROOFTOP",4724078,479.072996720614,"龍山寺站",78.2697829850589,"青山公園"
"中山區","整層住家",38,"41800","2016-12-16 10:42:11","中山區復興北路354-1號",0,1,0,0,0,0,0,0,0,0,0,0,0,0,0,1,1,0,1,"25.0602595","121.5439216","ROOFTOP",4711312,72.3462365068623,"中山國中站",184.25457792284,"龍江公園"
"信義區","分租套房",8,"10500","2016-12-16 10:42:17","信義區吳興街350巷00號",0,0,0,0,0,1,0,0,0,0,0,0,1,0,0,1,1,1,1,"25.0256326","121.5662129","RANGE_INTERPOLATED",4717132,855.449813195422,"象山站",200.848210706665,"惠安公園"
"大安區","整層住家",105,"200000","2016-12-16 10:42:25","大安區羅斯福路三段309號",0,0,0,1,0,0,0,0,0,0,0,0,0,0,0,1,1,1,1,"25.0174029","121.5319610","ROOFTOP",4724112,59.7133896866177,"臺電大樓站",138.179867849189,"文盛公園"
"中山區","獨立套房",10.5,"21000","2016-12-16 10:42:16","中山區敬業一路139號",0,1,0,0,0,0,0,0,0,0,0,1,0,0,0,1,1,1,1,"25.0838236","121.5523295","ROOFTOP",3698886,348.315929724994,"劍南路站",318.686676614395,"永直公園"
"大安區","獨立套房",8,"14000","2016-12-16 10:42:15","大安區仁愛路四段408巷",0,0,0,1,0,0,0,0,0,0,0,1,0,0,1,1,1,1,1,"25.0369297","121.5568981","GEOMETRIC_CENTER",4739690,246.829032413248,"國父紀念館站",188.454046898605,"光信公園"
"內湖區","獨立套房",7,"8500","2016-12-16 10:42:25","內湖區內湖路三段59巷",0,0,0,0,0,0,0,0,1,0,0,1,0,0,0,1,1,1,1,"25.0857870","121.5919426","GEOMETRIC_CENTER",4717771,1033.51235712207,"文德站",143.946811313295,"碧山公園"
"大安區","獨立套房",8.9,"23800","2016-12-16 10:42:26","大安區信義路三段147巷",0,0,0,1,0,0,0,0,0,0,0,1,0,0,0,1,1,1,1,"25.0356082","121.5419552","GEOMETRIC_CENTER",4710251,330.385874472425,"大安站",87.0711697217151,"附中公園"
"南港區","整層住家",48.9,"38000","2016-12-16 10:42:20","南港區園區街",0,0,0,0,0,0,0,0,0,1,0,0,0,0,0,1,1,1,1,"25.0590731","121.6125534","GEOMETRIC_CENTER",4604612,353.880603176954,"南港軟體園區站",168.130393756516,"南港65號園區綠地"
"信義區","雅房",3,"5000","2016-12-16 10:42:24","信義區永吉路193號",0,0,0,0,0,1,0,0,0,0,0,0,0,1,0,1,0,1,1,"25.0457500","121.5732220","ROOFTOP",4726923,632.894570006245,"松山站",223.735669008635,"四育公園"
"中山區","獨立套房",7,"13500","2016-12-16 10:39:05","中山區德惠街193巷",0,1,0,0,0,0,0,0,0,0,0,1,0,0,0,1,1,1,1,"25.0673562","121.5326683","GEOMETRIC_CENTER",4754266,816.513210373102,"中山國小站",112.742871489727,"德惠公園"
"大同區","分租套房",5,"8000","2016-12-16 10:36:09","大同區重慶北路三段205巷21號",1,0,0,0,0,0,0,0,0,0,0,0,1,0,0,1,1,1,1,"25.0700188","121.5147073","ROOFTOP",4620782,565.424680225414,"圓山站",91.3764030305869,"大龍公園"
"大安區","分租套房",6,"12000","2016-12-16 10:36:08","大安區羅斯福路三段333巷",0,0,0,1,0,0,0,0,0,0,0,0,1,0,0,1,1,1,1,"25.0174300","121.5326564","GEOMETRIC_CENTER",4727638,128.127421315308,"臺電大樓站",150.337832242204,"文盛公園"
"士林區","整層住家",40,"33000","2016-12-16 10:36:19","士林區華齡街40巷",0,0,0,0,0,0,1,0,0,0,0,0,0,0,0,0,0,0,0,"25.0838198","121.5200428","GEOMETRIC_CENTER",4711879,520.915007713387,"劍潭站",120.466216193618,"前港公園"
"信義區","整層住家",31,"55000","2016-12-16 10:36:01","信義區吳興街284巷8號",0,0,0,0,0,1,0,0,0,0,0,0,0,0,0,0,0,0,1,"25.0250299","121.5636990","ROOFTOP",4703518,895.124009516614,"台北101/世貿中心站",23.7575604678526,"黎雙公園"
"文山區","整層住家",24,"25000","2016-12-16 10:36:05","文山區景興路97巷",0,0,0,0,0,0,0,0,0,0,1,0,0,0,0,0,0,0,1,"24.9954665","121.5453183","GEOMETRIC_CENTER",4747416,503.006867029928,"景美站",157.237666919292,"景華公園"
"萬華區","整層住家",55,"45000","2016-12-16 10:36:12","萬華區西園路二段",0,0,0,0,1,0,0,0,0,0,0,0,0,0,0,1,1,0,0,"25.0282005","121.4951900","GEOMETRIC_CENTER",4753604,916.273974239308,"龍山寺站",243.23333925904,"西園公園"
"中正區","獨立套房",9,"23000","2016-12-16 10:36:02","中正區臨沂街",0,0,0,0,0,0,0,0,0,0,0,1,0,0,0,1,1,1,1,"25.0389555","121.5294385","GEOMETRIC_CENTER",4753620,546.355473241184,"忠孝新生站",142.671030922341,"文光公園"
"中山區","整層住家",15,"18500","2016-12-16 10:36:03","中山區民權東路二段92巷7弄17號",0,1,0,0,0,0,0,0,0,0,0,0,0,0,0,1,1,1,1,"25.0608904","121.5323206","ROOFTOP",4684716,156.979515617746,"行天宮站",90.4119858649158,NA
"信義區","獨立套房",6.5,"14000","2016-12-16 10:36:22","信義區和平東路三段207巷",0,0,0,0,0,1,0,0,0,0,0,1,0,0,0,1,1,1,1,"25.0236159","121.5538718","GEOMETRIC_CENTER",4739923,227.323508604585,"六張犁站",172.814256761288,"崇德綠地"
"中山區","獨立套房",12.6,"16000","2016-12-16 10:30:55","中山區新生北路三段",0,1,0,0,0,0,0,0,0,0,0,1,0,0,0,1,0,1,1,"25.0666336","121.5279828","GEOMETRIC_CENTER",4734389,466.181160868442,"中山國小站",178.031779795085,"新祿公園"
"松山區","整層住家",31.9,"30000","2016-12-16 10:30:45","松山區撫遠街400巷",0,0,1,0,0,0,0,0,0,0,0,0,0,0,0,1,0,1,0,"25.0657624","121.5645661","GEOMETRIC_CENTER",4753005,1325.7671939039,"松山機場站",281.297235448621,"撫遠公園"
"大同區","分租套房",8,"11000","2016-12-16 10:31:03","大同區民生西路78號",1,0,0,0,0,0,0,0,0,0,0,0,1,0,1,1,1,1,1,"25.0574760","121.5203248","ROOFTOP",4620419,55.0613595529866,"雙連站",210.698587079194,"民享公園"
"大安區","整層住家",19,"20500","2016-12-16 10:41:38","大安區通化街57巷",0,0,0,1,0,0,0,0,0,0,0,0,0,0,0,1,1,1,1,"25.0304009","121.5553770","GEOMETRIC_CENTER",4708104,398.76982550564,"信義安和站",212.454798788638,"通化公園"
"士林區","獨立套房",8,"9500","2016-12-16 10:30:55","士林區中興街",0,0,0,0,0,0,1,0,0,0,0,1,0,0,0,1,1,1,1,"25.0957088","121.5222995","GEOMETRIC_CENTER",4737896,464.203099650097,"士林站",35.7803718581727,"華聲公園"
"中山區","獨立套房",10,"20000","2016-12-16 10:31:11","中山區松江路",0,1,0,0,0,0,0,0,0,0,0,1,0,0,0,1,1,1,1,"25.0595808","121.5332911","GEOMETRIC_CENTER",4719246,18.6150658444832,"行天宮站",107.374434394421,NA
"松山區","雅房",6,"6500","2016-12-16 10:31:01","松山區民權東路三段191巷81號",0,0,1,0,0,0,0,0,0,0,0,0,0,1,0,1,1,1,1,"25.0645340","121.5458980","ROOFTOP",4753607,443.612385322194,"中山國中站",445.540494686527,"民有一號公園"
"文山區","整層住家",70,"80000","2016-12-16 10:30:55","文山區久康街",0,0,0,0,0,0,0,0,0,0,1,0,0,0,0,1,1,1,1,"24.9898085","121.5661115","GEOMETRIC_CENTER",4685329,1176.66648064357,"木柵站",157.33750774332,"木柵17號秀明綠地"
"士林區","雅房",6,"6000","2016-12-16 10:31:00","士林區通河東街一段6巷",0,0,0,0,0,0,1,0,0,0,0,0,0,1,0,1,0,0,1,"25.0820676","121.5179585","GEOMETRIC_CENTER",4729677,782.696930158293,"劍潭站",104.103754873837,"福華公園"
"松山區","分租套房",4,"8500","2016-12-16 10:31:12","松山區撫遠街261巷",0,0,1,0,0,0,0,0,0,0,0,0,1,0,0,1,1,1,1,"25.0621979","121.5684093","GEOMETRIC_CENTER",4712177,1439.79720521163,"南京三民站",53.1700896578636,"舊宗1號公園"
"中山區","獨立套房",9.2,"18000","2016-12-16 10:30:47","中山區中山北路二段",0,1,0,0,0,0,0,0,0,0,0,1,0,0,0,1,1,1,1,"25.0600427","121.5228506","GEOMETRIC_CENTER",4731552,328.900653729376,"雙連站",197.466812285515,"民享公園"
"大安區","雅房",4,"5500","2016-12-16 10:30:46","大安區通化街19巷",0,0,0,1,0,0,0,0,0,0,0,0,0,1,0,1,1,1,1,"25.0316610","121.5557220","GEOMETRIC_CENTER",4743824,336.473245665971,"信義安和站",129.700652005571,"通化公園"
"文山區","雅房",5,"7800","2016-12-16 10:30:49","文山區興隆路三段36巷",0,0,0,0,0,0,0,0,0,0,1,0,0,1,0,1,1,0,1,"24.9999917","121.5552422","GEOMETRIC_CENTER",4674312,305.950090970664,"萬芳醫院站",84.5208316029141,"景美30號綠地"
"北投區","整層住家",46,"25000","2016-12-16 10:31:09","北投區知行路210巷",0,0,0,0,0,0,0,1,0,0,0,0,0,0,0,1,0,0,0,"25.1194475","121.4684448","GEOMETRIC_CENTER",4743820,677.291727756789,"關渡站",183.613305300478,"知行公園"
"信義區","分租套房",10,"16500","2016-12-16 10:31:02","信義區松山路119巷",0,0,0,0,0,1,0,0,0,0,0,0,1,0,0,1,1,1,1,"25.0474767","121.5778621","APPROXIMATE",4679466,270.136769697906,"松山站",144.570061636567,"信義20號廣場"
"松山區","整層住家",34.6,"58000","2016-12-16 10:30:51","松山區南京東路五段",0,0,1,0,0,0,0,0,0,0,0,0,0,0,0,1,1,1,1,"25.0514899","121.5639560","GEOMETRIC_CENTER",4741563,353.887214172451,"南京三民站",106.933722485872,"吉祥公園"
"南港區","分租套房",8,"12000","2016-12-16 10:30:50","南港區三重路67巷",0,0,0,0,0,0,0,0,0,1,0,0,1,0,0,1,1,1,1,"25.0606351","121.6137402","GEOMETRIC_CENTER",4751328,233.828993606804,"南港軟體園區站",185.113756593537,"南港65號園區綠地"
"大安區","獨立套房",10,"36000","2016-12-16 10:31:04","大安區敦化南路二段",0,0,0,1,0,0,0,0,0,0,0,1,0,0,0,1,1,1,1,"25.0256763","121.5485022","GEOMETRIC_CENTER",4744724,383.930649363509,"六張犁站",93.4549406339262,"鳳雛公園"
"大安區","雅房",5,"8800","2016-12-16 10:30:56","大安區羅斯福路三段",0,0,0,1,0,0,0,0,0,0,0,0,0,1,0,1,1,1,1,"25.0205107","121.5285280","GEOMETRIC_CENTER",4735448,437.828833521963,"臺電大樓站",170.769159782595,"古風公園"
"中正區","整層住家",18,"17000","2016-12-16 10:31:15","中正區南陽街17巷",0,0,0,0,0,0,0,0,0,0,0,0,0,0,0,1,1,1,1,"25.0441741","121.5164399","GEOMETRIC_CENTER",4727346,370.136899121822,"臺大醫院站",88.8220512759907,"黎明公園"
"士林區","整層住家",61,"55000","2016-12-16 10:30:45","士林區天母東路69巷",0,0,0,0,0,0,1,0,0,0,0,0,0,0,0,1,1,1,0,"25.1198999","121.5333539","GEOMETRIC_CENTER",4747550,1849.86548224162,"明德站",64.7271998223825,"天和公園"
"大同區","整層住家",24,"23000","2016-12-16 10:30:17","大同區赤峰街3巷",1,0,0,0,0,0,0,0,0,0,0,0,0,0,0,1,0,1,1,"25.0533863","121.5194720","GEOMETRIC_CENTER",4687681,102.70467103748,"中山站",136.519775771267,"中山4號廣場"
"大安區","獨立套房",4,"12500","2016-12-16 10:30:25","大安區師大路",0,0,0,1,0,0,0,0,0,0,0,1,0,0,0,1,1,1,1,"25.0237860","121.5285140","GEOMETRIC_CENTER",4682152,621.686916035627,"古亭站",91.7708683795603,"師大公園"
"士林區","整層住家",39.6,"60000","2016-12-16 11:16:10","士林區天母北路22號",0,0,0,0,0,0,1,0,0,0,0,0,0,0,0,1,1,1,1,"25.1198173","121.5262626","ROOFTOP",4625090,1229.33463440068,"石牌站",200.628595825688,"天美綠地"
"中山區","獨立套房",6,"11000","2016-12-16 10:30:33","中山區新生北路108號",0,1,0,0,0,0,0,0,0,0,0,1,0,0,0,1,0,0,0,"25.0493254","121.5284237","ROOFTOP",4736086,483.853602117409,"松江南京站",174.687246282508,"吉林公園"
"中山區","雅房",10,"9000","2016-12-16 10:30:26","中山區一江街38號",0,1,0,0,0,0,0,0,0,0,0,0,0,1,0,1,1,1,1,"25.0537412","121.5314371","ROOFTOP",4753598,309.262395936359,"松江南京站",54.3583389522141,"一江公園"
"內湖區","分租套房",7,"9000","2016-12-16 10:30:16","內湖區新明路",0,0,0,0,0,0,0,0,1,0,0,0,1,0,0,1,1,1,1,"25.0565838","121.5837421","GEOMETRIC_CENTER",4699768,926.80782623444,"內湖站",124.467370419274,"內湖119號安興綠地"
"內湖區","整層住家",30,"20000","2016-12-16 10:30:23","內湖區港華街85巷15號",0,0,0,0,0,0,0,0,1,0,0,0,0,0,0,0,0,0,0,"25.0839940","121.5746330","ROOFTOP",4743803,442.911270510748,"港墘站",29.6398924537597,"港華六號公園"
"中山區","獨立套房",6,"11000","2016-12-16 10:30:17","中山區遼寧街63巷",0,1,0,0,0,0,0,0,0,0,0,1,0,0,0,1,1,1,1,"25.0491547","121.5424353","GEOMETRIC_CENTER",4684696,380.145145893497,"南京復興站",77.9420320983,"朱崙公園"
"中山區","整層住家",19.8,"35000","2016-12-16 10:30:37","中山區松江路184巷",0,1,0,0,0,0,0,0,0,0,0,0,0,0,0,1,1,1,1,"25.0564340","121.5330067","APPROXIMATE",4702561,365.898974985847,"行天宮站",117.941974560682,"中吉公園"
"北投區","雅房",7,"8000","2016-12-16 10:30:18","北投區致遠一路一段９號",0,0,0,0,0,0,0,1,0,0,0,0,0,1,0,1,1,1,1,"25.1076517","121.5173420","ROOFTOP",4723972,275.783005603616,"明德站",369.298407597832,"明德綠地"
"士林區","雅房",4,"5900","2016-12-16 10:30:16","士林區重慶北路四段1巷",0,0,0,0,0,0,1,0,0,0,0,0,0,1,0,1,0,1,1,"25.0795426","121.5121780","GEOMETRIC_CENTER",4706553,1213.27779100867,"圓山站",11.8611823836285,"福德綠地"
"大安區","獨立套房",5.5,"9000","2016-12-16 10:30:23","大安區通化街39巷53弄21號",0,0,0,1,0,0,0,0,0,0,0,1,0,0,0,0,1,1,1,"25.0310684","121.5559080","ROOFTOP",4743828,387.75499000201,"信義安和站",182.352751262769,"通化公園"
"信義區","整層住家",41.8,"40000","2016-12-16 10:24:47","信義區基隆路二段",0,0,0,0,0,1,0,0,0,0,0,0,0,0,0,1,1,0,1,"25.0273897","121.5560667","GEOMETRIC_CENTER",4754202,608.332535536956,"六張犁站",91.8632958802991,"臨江公園"
"大安區","整層住家",24.1,"36000","2016-12-16 10:24:29","大安區延吉街",0,0,0,1,0,0,0,0,0,0,0,0,0,0,0,1,1,1,1,"25.0387539","121.5551559","GEOMETRIC_CENTER",4723957,262.105220834866,"國父紀念館站",361.429527791431,"光信公園"
"信義區","獨立套房",7.2,"14000","2016-12-16 10:24:07","信義區松山路623號",0,0,0,0,0,1,0,0,0,0,0,1,0,0,0,1,1,1,1,"25.0365079","121.5785410","ROOFTOP",4702263,507.36829685694,"永春站",233.953543575318,"松隆綠地"
"士林區","獨立套房",12,"18000","2016-12-16 10:24:20","士林區文林路404巷1號",0,0,0,0,0,0,1,0,0,0,0,1,0,0,0,1,1,1,1,"25.0940239","121.5252512","ROOFTOP",4750584,112.600769930267,"士林站",325.389359965609,"209號綠地"
"內湖區","分租套房",6,"13500","2016-12-16 10:24:25","內湖區金龍路1號",0,0,0,0,0,0,0,0,1,0,0,0,1,0,0,1,1,1,1,"25.0844697","121.5949590","ROOFTOP",4687276,1051.40707951035,"大湖公園站",169.526567612883,"成功公園"
"中山區","整層住家",22,"17000","2016-12-16 10:24:05","中山區復興北路514巷43號",0,1,0,0,0,0,0,0,0,0,0,0,0,0,1,1,1,1,1,"25.0660799","121.5423406","ROOFTOP",4728098,612.657767699252,"中山國中站",103.718440932147,"下埤公園"
"信義區","分租套房",10,"15000","2016-12-16 10:24:14","信義區虎林街108巷",0,0,0,0,0,1,0,0,0,0,0,0,1,0,0,1,1,1,1,"25.0425754","121.5740729","GEOMETRIC_CENTER",4737909,327.738798499395,"永春站",149.230822564628,"永吉公園"
"內湖區","分租套房",5,"8800","2016-12-16 10:35:18","內湖區瑞光路",0,0,0,0,0,0,0,0,1,0,0,0,1,0,1,1,1,1,1,"25.0760762","121.5754389","GEOMETRIC_CENTER",4754169,442.331751272282,"港墘站",201.948092543445,"文德 3 號公園"
"內湖區","獨立套房",7,"8500","2016-12-16 11:06:47","內湖區內湖路三段59巷",0,0,0,0,0,0,0,0,1,0,0,1,0,0,0,1,1,1,1,"25.0857870","121.5919426","GEOMETRIC_CENTER",4751469,1033.51235712207,"文德站",143.946811313295,"碧山公園"
"大同區","整層住家",42.1,"48000","2016-12-16 10:24:09","大同區重慶北路三段",1,0,0,0,0,0,0,0,0,0,0,0,0,0,0,1,0,0,0,"25.0712695","121.5138885","GEOMETRIC_CENTER",4719279,628.196044105472,"圓山站",190.241758530347,"迪化公園"
"內湖區","整層住家",54.4,"56000","2016-12-16 10:24:08","內湖區康寧路三段70巷",0,0,0,0,0,0,0,0,1,0,0,0,0,0,0,1,1,1,1,"25.0685889","121.6099695","GEOMETRIC_CENTER",4700368,240.046567131089,"東湖站",52.3640666472561,"康寧公園"
"信義區","整層住家",33.9,"42000","2016-12-16 10:24:29","信義區仁愛路四段",0,0,0,0,0,1,0,0,0,0,0,0,0,0,0,1,1,1,1,"25.0377127","121.5605072","GEOMETRIC_CENTER",4701092,314.436324573656,"國父紀念館站",255.790747401938,"市民廣場"
"大安區","獨立套房",5,"15000","2016-12-16 10:24:06","大安區雲和街61號",0,0,0,1,0,0,0,0,0,0,0,1,0,0,0,1,1,1,1,"25.0236169","121.5297000","ROOFTOP",4699766,695.89106261541,"臺電大樓站",173.132337556258,"師大公園"
"士林區","整層住家",56,"42000","2016-12-16 10:24:09","士林區中山北路七段219巷10號",0,0,0,0,0,0,1,0,0,0,0,0,0,0,0,1,1,1,1,"25.1280053","121.5327214","ROOFTOP",4747784,2290.13683214097,"石牌站",250.653349902132,"天生廣場"
"士林區","整層住家",26,"32000","2016-12-16 10:24:16","士林區基河路16-2號",0,0,0,0,0,0,1,0,0,0,0,0,0,0,0,1,1,1,1,"25.0823236","121.5241249","ROOFTOP",4730380,299.592484864727,"劍潭站",215.401447322877,"華齡公園"
"信義區","獨立套房",9,"24000","2016-12-16 10:24:05","信義區和平東路三段169號",0,0,0,0,0,1,0,0,0,0,0,1,0,0,0,1,1,1,1,"25.0241390","121.5531110","ROOFTOP",4711852,158.206664528218,"六張犁站",236.106829175436,"崇德綠地"
"松山區","雅房",4,"5500","2016-12-16 10:24:12","松山區八德路四段72巷12弄4號",0,0,1,0,0,0,0,0,0,0,0,0,0,1,0,1,1,1,1,"25.0470318","121.5600040","ROOFTOP",4745130,495.187086328799,"南京三民站",156.039109511169,"復盛公園(前名捐地公園)"
"中山區","整層住家",15,"24000","2016-12-16 10:24:03","中山區農安街",0,1,0,0,0,0,0,0,0,0,0,0,0,0,0,1,1,1,1,"25.0648401","121.5294305","GEOMETRIC_CENTER",4711280,386.529905473152,"中山國小站",177.337756589235,"新壽公園"
"大同區","獨立套房",9,"11000","2016-12-16 10:24:03","大同區重慶北路一段83巷",1,0,0,0,0,0,0,0,0,0,0,1,0,0,0,1,1,1,1,"25.0528239","121.5150480","GEOMETRIC_CENTER",4753575,533.814576572165,"中山站",189.566897688327,"大同24廣場"
"松山區","獨立套房",16,"26500","2016-12-16 10:18:03","松山區南京東路五段239號",0,0,1,0,0,0,0,0,0,0,0,1,0,0,0,1,1,1,1,"25.0516520","121.5648020","ROOFTOP",4750500,439.699199617166,"南京三民站",145.888464624107,"吉祥公園"
"士林區","整層住家",110,"41000","2016-12-16 10:18:03","士林區延平北路八段2巷",0,0,0,0,0,0,1,0,0,0,0,0,0,0,0,0,0,0,0,"25.1073866","121.4866779","GEOMETRIC_CENTER",4695152,2479.16188938112,"唭哩岸站",1736.96053913324,"北投192號綠地"
"中山區","獨立套房",8,"11000","2016-12-16 10:18:05","中山區松江路313巷",0,1,0,0,0,0,0,0,0,0,0,1,0,0,0,1,1,1,1,"25.0618190","121.5332872","APPROXIMATE",4684664,234.224890788314,"行天宮站",214.111852019007,NA
"信義區","分租套房",9,"16000","2016-12-16 10:18:03","信義區信義路六段",0,0,0,0,0,1,0,0,0,0,0,0,1,0,0,1,1,1,1,"25.0352969","121.5768322","GEOMETRIC_CENTER",4738980,602.72554240432,"永春站",169.027929592878,"松友公園"
"文山區","整層住家",22,"18000","2016-12-16 10:18:21","文山區興隆路四段58巷",0,0,0,0,0,0,0,0,0,0,1,0,0,0,0,1,0,0,0,"24.9852957","121.5601942","GEOMETRIC_CENTER",4719136,1581.65435344812,"萬芳醫院站",123.247288017997,"樟林公園"
"士林區","整層住家",62.6,"85000","2016-12-16 10:18:07","士林區忠誠路二段",0,0,0,0,0,0,1,0,0,0,0,0,0,0,0,1,0,1,0,"25.1140149","121.5321125","GEOMETRIC_CENTER",4700398,1419.94248515375,"明德站",301.445048545745,"天和一號公園"
"中山區","整層住家",24.2,"35000","2016-12-16 10:18:23","中山區中山北路一段",0,1,0,0,0,0,0,0,0,0,0,0,0,0,0,1,1,1,1,"25.0501438","121.5216317","GEOMETRIC_CENTER",4678937,333.774399359875,"中山站",296.545460410199,"中山4號廣場"
"文山區","整層住家",84,"80000","2016-12-16 10:18:14","文山區政大一街",0,0,0,0,0,0,0,0,0,0,1,0,0,0,0,1,1,1,1,"24.9856654","121.5840389","GEOMETRIC_CENTER",4712623,1477.02573587115,"動物園站",153.967733044668,"文山木柵59號公園"
"中山區","整層住家",21,"21000","2016-12-16 10:18:11","中山區南京東路二段",0,1,0,0,0,0,0,0,0,0,0,0,0,0,0,1,1,1,1,"25.0519529","121.5319662","GEOMETRIC_CENTER",4744617,112.348875893512,"松江南京站",164.002259854878,"一江公園"
"中山區","獨立套房",8,"12000","2016-12-16 10:18:19","中山區林森北路310巷",0,1,0,0,0,0,0,0,0,0,0,1,0,0,0,1,1,1,1,"25.0562712","121.5245933","GEOMETRIC_CENTER",4738821,441.407300845288,"雙連站",65.5332663471854,"中安公園"
"士林區","分租套房",8,"8000","2016-12-16 10:18:17","士林區通河東街一段136巷",0,0,0,0,0,0,1,0,0,0,0,0,1,0,0,1,0,1,1,"25.0872599","121.5164088","GEOMETRIC_CENTER",4719231,913.419366286752,"劍潭站",255.885741241732,"福中公園"
"文山區","分租套房",9,"8500","2016-12-16 10:18:07","文山區萬壽路61巷",0,0,0,0,0,0,0,0,0,0,1,0,1,0,0,1,1,1,1,"24.9867079","121.5897731","GEOMETRIC_CENTER",4708687,1656.04772090898,"動物園站",76.7770053686596,"萬壽二號公園"
"信義區","獨立套房",20,"18500","2016-12-16 10:18:05","信義區崇德街31巷",0,0,0,0,0,1,0,0,0,0,0,1,0,0,1,1,1,1,0,"25.0246799","121.5539692","GEOMETRIC_CENTER",4733640,260.958197015775,"六張犁站",157.897875299616,"崇德綠地"
"中正區","整層住家",90,"128000","2016-12-16 10:18:16","中正區三元街",0,0,0,0,0,0,0,0,0,0,0,0,0,0,0,1,1,1,1,"25.0283728","121.5104797","GEOMETRIC_CENTER",4746745,798.202953168192,"小南門站",244.227484472366,"永昌公園"
"松山區","雅房",5,"7500","2016-12-16 10:12:09","松山區八德路四段",0,0,1,0,0,0,0,0,0,0,0,0,0,1,0,1,1,0,1,"25.0493187","121.5688828","GEOMETRIC_CENTER",4674845,874.283167612633,"松山站",200.411444612524,"交六"
"中山區","雅房",4,"5500","2016-12-16 10:12:23","中山區新生北路三段87巷25號",0,1,0,0,0,0,0,0,0,0,0,0,0,1,0,1,0,1,1,"25.0674359","121.5288382","ROOFTOP",4677180,581.650519371906,"中山國小站",87.4294309705295,"新祿公園"
"中山區","整層住家",20.6,"39000","2016-12-16 10:12:31","中山區雙城街19巷",0,1,0,0,0,0,0,0,0,0,0,0,0,0,0,1,1,1,1,"25.0653951","121.5256844","GEOMETRIC_CENTER",4676535,309.758970217216,"中山國小站",200.817626168571,"晴光公園"
"大安區","整層住家",57,"79000","2016-12-16 10:12:04","大安區信義路二段",0,0,0,1,0,0,0,0,0,0,0,0,0,0,0,1,1,1,1,"25.0338446","121.5282784","GEOMETRIC_CENTER",4670803,70.123412479644,"東門站",128.161714716142,"信愛公園"
"萬華區","獨立套房",8,"13000","2016-12-16 10:12:22","萬華區寶興街",0,0,0,0,1,0,0,0,0,0,0,1,0,0,0,1,1,1,1,"25.0251828","121.4947082","GEOMETRIC_CENTER",4733264,1236.78162853736,"龍山寺站",228.472332243301,"西園公園"
"松山區","獨立套房",5,"10000","2016-12-16 10:12:30","松山區南京東路五段",0,0,1,0,0,0,0,0,0,0,0,1,0,0,0,1,1,1,1,"25.0514899","121.5639560","GEOMETRIC_CENTER",4753850,353.887214172451,"南京三民站",106.933722485872,"吉祥公園"
"萬華區","獨立套房",10,"13000","2016-12-16 10:12:10","萬華區東園街35巷",0,0,0,0,1,0,0,0,0,0,0,1,0,0,0,1,1,1,1,"25.0272329","121.4971309","GEOMETRIC_CENTER",4677735,936.030355711466,"龍山寺站",111.160988888626,"西園公園"
"信義區","獨立套房",5,"11500","2016-12-16 10:12:15","信義區永吉路278巷",0,0,0,0,0,1,0,0,0,0,0,1,0,0,0,1,1,1,1,"25.0440084","121.5741364","GEOMETRIC_CENTER",4671977,442.750064138314,"永春站",102.343836394946,"永吉公園"
"萬華區","分租套房",5,"11500","2016-12-16 10:12:08","萬華區中華路一段",0,0,0,0,1,0,0,0,0,0,0,0,1,0,0,1,1,1,1,"25.0425171","121.5082058","GEOMETRIC_CENTER",4732310,70.6409472997722,"西門站",271.671691030128,"西本願寺（萬華406號）廣場"
"中山區","整層住家",20,"23000","2016-12-16 10:12:32","中山區林森北路",0,1,0,0,0,0,0,0,0,0,0,0,0,0,0,1,1,1,1,"25.0581693","121.5255269","GEOMETRIC_CENTER",4681075,497.409985284851,"雙連站",120.636719282011,"永盛公園"
"士林區","獨立套房",15,"23000","2016-12-16 10:12:16","士林區德行西路36號",0,0,0,0,0,0,1,0,0,0,0,1,0,0,0,1,1,1,1,"25.1052476","121.5231654","ROOFTOP",4730001,252.244149479941,"芝山站",51.1943755580203,"德行公園"
"中山區","獨立套房",7.9,"24000","2016-12-16 10:12:12","中山區松江路",0,1,0,0,0,0,0,0,0,0,0,1,0,0,0,1,1,1,0,"25.0595808","121.5332911","GEOMETRIC_CENTER",4714087,18.6150658444832,"行天宮站",107.374434394421,NA
"松山區","整層住家",64.4,"95000","2016-12-16 10:12:23","松山區南京東路五段",0,0,1,0,0,0,0,0,0,0,0,0,0,0,0,1,1,1,1,"25.0514899","121.5639560","GEOMETRIC_CENTER",4702225,353.887214172451,"南京三民站",106.933722485872,"吉祥公園"
"士林區","整層住家",50,"80000","2016-12-16 10:12:07","士林區芝玉路一段197巷5號",0,0,0,0,0,0,1,0,0,0,0,0,0,0,0,1,1,1,1,"25.1074277","121.5333070","RANGE_INTERPOLATED",4683530,1191.68736955531,"芝山站",117.187392032405,"聖山綠地"
"中山區","整層住家",13,"21000","2016-12-16 10:09:36","中山區中山北路一段53巷",0,1,0,0,0,0,0,0,0,0,0,0,0,0,0,1,1,1,1,"25.0490809","121.5227047","GEOMETRIC_CENTER",4733061,487.874263356111,"中山站",269.386308061607,"中央藝文公園"
"信義區","獨立套房",5,"11000","2016-12-16 10:07:19","信義區嘉興街",0,0,0,0,0,1,0,0,0,0,0,1,0,0,0,1,1,1,1,"25.0277553","121.5571049","GEOMETRIC_CENTER",4673478,714.201488100492,"六張犁站",144.856691287812,"臨江公園"
"中山區","獨立套房",8,"11000","2016-12-16 10:06:27","中山區松江路313巷",0,1,0,0,0,0,0,0,0,0,0,1,0,0,0,1,1,1,1,"25.0618190","121.5332872","APPROXIMATE",4684646,234.224890788314,"行天宮站",214.111852019007,NA
"信義區","獨立套房",8,"11000","2016-12-16 10:06:26","信義區永吉路468巷10弄14號",0,0,0,0,0,1,0,0,0,0,0,1,0,0,0,1,1,1,1,"25.0450510","121.5786210","ROOFTOP",4683423,393.426504415103,"後山埤站",157.185955643738,"太子綠地"
"士林區","分租套房",4,"4000","2016-12-16 10:06:20","士林區大南路428巷36號",0,0,0,0,0,0,1,0,0,0,0,0,1,0,0,1,0,0,1,"25.0896515","121.5173159","ROOFTOP",4695727,946.150738919959,"劍潭站",246.499944553472,"福中公園"
"文山區","雅房",7,"7000","2016-12-16 10:06:18","文山區秀明路一段79巷",0,0,0,0,0,0,0,0,0,0,1,0,0,1,0,1,1,1,1,"24.9906734","121.5656419","GEOMETRIC_CENTER",4709483,1132.50396674739,"木柵站",182.161940177868,"久康公園"
"信義區","獨立套房",10,"14500","2016-12-16 10:06:36","信義區永吉路",0,0,0,0,0,1,0,0,0,0,0,1,0,0,0,1,1,1,1,"25.0454982","121.5741911","GEOMETRIC_CENTER",4680117,585.449652403137,"永春站",169.964708496014,"四育公園"
"內湖區","整層住家",27,"30000","2016-12-16 10:06:06","內湖區民權東路六段",0,0,0,0,0,0,0,0,1,0,0,0,0,0,0,1,1,1,1,"25.0690883","121.5892020","GEOMETRIC_CENTER",3437361,618.609912712853,"內湖站",172.008447027152,NA
"內湖區","分租套房",4,"7900","2016-12-16 10:06:06","內湖區陽光街285巷",0,0,0,0,0,0,0,0,1,0,0,0,1,0,0,1,1,1,1,"25.0736981","121.5802808","GEOMETRIC_CENTER",4670776,755.620883432141,"文德站",275.568565620803,"內湖110號綠地"
"松山區","分租套房",4,"10000","2016-12-16 10:06:24","松山區復興北路231巷",0,0,1,0,0,0,0,0,0,0,0,0,1,0,0,1,1,1,1,"25.0570305","121.5447753","GEOMETRIC_CENTER",4746685,428.557016454469,"中山國中站",193.888175633803,"中華公園"
"信義區","獨立套房",8,"16000","2016-12-16 10:06:09","信義區光復南路443巷",0,0,0,0,0,1,0,0,0,0,0,1,0,0,0,1,1,1,1,"25.0355258","121.5575442","APPROXIMATE",4722514,388.579040086553,"國父紀念館站",175.962109366927,"光信公園"
"松山區","整層住家",15,"20000","2016-12-16 10:06:35","松山區寶清街18-2號",0,0,1,0,0,0,0,0,0,0,0,0,0,0,1,1,0,0,0,"25.0502911","121.5686128","ROOFTOP",4706278,833.755436317364,"南京三民站",225.996208106351,"寶清公園"
"大同區","獨立套房",9,"12000","2016-12-16 10:06:03","大同區重慶北路二段",1,0,0,0,0,0,0,0,0,0,0,1,0,0,0,0,1,1,1,"25.0585075","121.5137099","GEOMETRIC_CENTER",4688235,537.900327010645,"大橋頭站",86.5324842477922,"歸綏公園"
"文山區","整層住家",36,"32000","2016-12-16 10:06:07","文山區政大一街",0,0,0,0,0,0,0,0,0,0,1,0,0,0,0,1,0,0,0,"24.9856654","121.5840389","GEOMETRIC_CENTER",4672882,1477.02573587115,"動物園站",153.967733044668,"文山木柵59號公園"
"松山區","雅房",8,"8500","2016-12-16 10:06:08","松山區敦化北路155巷",0,0,1,0,0,0,0,0,0,0,0,0,0,1,0,1,1,1,1,"25.0542701","121.5511767","GEOMETRIC_CENTER",4684624,316.801142108114,"台北小巨蛋站",290.109596834799,"松山111公園"
"北投區","整層住家",54.1,"45000","2016-12-16 10:06:05","北投區大業路",0,0,0,0,0,0,0,1,0,0,0,0,0,0,0,1,0,1,0,"25.1267578","121.4982442","GEOMETRIC_CENTER",4674232,287.590968733317,"奇岩站",97.3959426415962,"北投167號綠地"
"中山區","獨立套房",10,"13000","2016-12-16 10:06:13","中山區吉林路",0,1,0,0,0,0,0,0,0,0,0,1,0,0,0,1,1,1,1,"25.0581536","121.5302038","GEOMETRIC_CENTER",4752947,347.282908490907,"行天宮站",259.016895904367,"中吉公園"
"信義區","雅房",5,"7500","2016-12-16 10:06:17","信義區松山路",0,0,0,0,0,1,0,0,0,0,0,0,0,1,0,1,1,1,1,"25.0353603","121.5797624","GEOMETRIC_CENTER",4683848,675.996364473188,"永春站",56.6996516586027,"松隆綠地"
"大安區","獨立套房",7,"11300","2016-12-16 10:06:18","大安區師大路",0,0,0,1,0,0,0,0,0,0,0,1,0,0,0,1,1,1,1,"25.0237860","121.5285140","GEOMETRIC_CENTER",4753369,621.686916035627,"古亭站",91.7708683795603,"師大公園"
"松山區","分租套房",10,"13000","2016-12-16 10:06:18","松山區南京東路四段120巷",0,0,1,0,0,0,0,0,0,0,0,0,1,0,0,1,0,0,1,"25.0505887","121.5551000","GEOMETRIC_CENTER",4671538,445.389062270736,"台北小巨蛋站",35.2715931792243,"寧安公園"
"中山區","整層住家",25.8,"50000","2016-12-16 10:06:35","中山區中山北路二段93巷",0,1,0,0,0,0,0,0,0,0,0,0,0,0,0,1,1,1,1,"25.0593428","121.5242113","GEOMETRIC_CENTER",4674787,397.651459411828,"雙連站",68.8236726192133,"永盛公園"
"大安區","整層住家",53,"50000","2016-12-16 10:06:29","大安區敦化南路一段177巷",0,0,0,1,0,0,0,0,0,0,0,0,0,0,0,0,0,0,0,"25.0430450","121.5507879","GEOMETRIC_CENTER",4727256,180.973198251506,"忠孝敦化站",319.237438444421,"光信綠地"
"中山區","獨立套房",6,"11500","2016-12-16 10:06:08","中山區松江路",0,1,0,0,0,0,0,0,0,0,0,1,0,0,0,1,1,1,1,"25.0595808","121.5332911","GEOMETRIC_CENTER",4726338,18.6150658444832,"行天宮站",107.374434394421,NA
"信義區","整層住家",27.5,"32500","2016-12-16 10:06:33","信義區忠孝東路五段372巷",0,0,0,0,0,1,0,0,0,0,0,0,0,0,0,1,0,0,1,"25.0399792","121.5740106","GEOMETRIC_CENTER",4742383,271.872675674527,"永春站",178.274292817848,"中全公園"
"北投區","獨立套房",9,"7800","2016-12-16 10:06:28","北投區一德里",0,0,0,0,0,0,0,1,0,0,0,1,0,0,0,1,1,1,1,"25.1304958","121.4713265","APPROXIMATE",2932529,201.40583180153,"忠義站",559.412675245451,"學園公園"
"萬華區","整層住家",19.9,"28000","2016-12-16 10:06:34","萬華區康定路",0,0,0,0,1,0,0,0,0,0,0,0,0,0,0,1,1,1,1,"25.0396846","121.5019408","GEOMETRIC_CENTER",4747033,534.804764249634,"龍山寺站",130.687380256843,"萬華266號綠地"
"萬華區","獨立套房",12,"9500","2016-12-16 10:03:55","萬華區環河南路二段250巷",0,0,0,0,1,0,0,0,0,0,0,1,0,0,1,1,0,1,0,"25.0335815","121.4910316","GEOMETRIC_CENTER",4752484,906.920454533911,"龍山寺站",174.585116872361,"華江八號公園"
"大安區","獨立套房",6,"11500","2016-12-16 10:01:07","大安區大安路一段51巷7號",0,0,0,1,0,0,0,0,0,0,0,1,0,0,0,1,1,1,1,"25.0432483","121.5466053","ROOFTOP",4690272,338.284226294405,"忠孝復興站",129.15317158645,"
"大安區","整層住家",17,"26000","2016-12-16 10:00:45","大安區金華街",0,0,0,1,0,0,0,0,0,0,0,0,0,0,0,1,0,0,0,"25.0299439","121.5280273","GEOMETRIC_CENTER",4740445,466.535972511616,"東門站",161.767640779066,"錦華綠地"
"中山區","獨立套房",12,"13000","2016-12-16 10:00:55","中山區長安東路二段36巷",0,1,0,0,0,0,0,0,0,0,0,1,0,0,0,1,1,1,1,"25.0475960","121.5314149","GEOMETRIC_CENTER",4692211,425.540674704213,"松江南京站",30.4406394271523,"興亞公園"
"中山區","整層住家",40,"35000","2016-12-16 10:00:26","中山區林森北路",0,1,0,0,0,0,0,0,0,0,0,0,0,0,0,1,0,0,1,"25.0581693","121.5255269","GEOMETRIC_CENTER",4679751,497.409985284851,"雙連站",120.636719282011,"永盛公園"
"南港區","整層住家",20,"20000","2016-12-16 10:00:57","南港區舊莊街一段90巷4號",0,0,0,0,0,0,0,0,0,1,0,0,0,0,0,1,1,1,1,"25.0404362","121.6189702","ROOFTOP",4711696,1665.56521774458,"南港展覽館站",121.390546796921,"胡適公園"
"松山區","獨立套房",10.4,"18000","2016-12-16 10:00:30","松山區復興北路427巷",0,0,1,0,0,0,0,0,0,0,0,1,0,0,0,1,1,1,1,"25.0632859","121.5445133","ROOFTOP",4731270,272.927741860469,"中山國中站",403.946211307069,"民有一號公園"
"內湖區","整層住家",29.5,"34000","2016-12-16 10:00:42","內湖區康寧路三段180巷",0,0,0,0,0,0,0,0,1,0,0,0,0,0,0,0,0,0,0,"25.0690731","121.6113200","GEOMETRIC_CENTER",4714449,220.461531969019,"東湖站",24.3579338371947,"南湖一號公園"
"中山區","整層住家",25.2,"45000","2016-12-16 10:01:13","中山區中山北路二段93巷",0,1,0,0,0,0,0,0,0,0,0,0,0,0,0,1,1,1,1,"25.0593428","121.5242113","GEOMETRIC_CENTER",4674738,397.651459411828,"雙連站",68.8236726192133,"永盛公園"
"萬華區","獨立套房",10,"10000","2016-12-16 10:00:35","萬華區大理街",0,0,0,0,1,0,0,0,0,0,0,1,0,0,0,1,1,1,1,"25.0343787","121.4986864","GEOMETRIC_CENTER",4707993,152.498343987265,"龍山寺站",107.265099864537,"寺前公園"
"大安區","獨立套房",6,"14000","2016-12-16 10:00:54","大安區敦化南路二段63巷",0,0,0,1,0,0,0,0,0,0,0,1,0,0,0,1,1,1,1,"25.0309289","121.5507721","GEOMETRIC_CENTER",2298630,317.853131918897,"信義安和站",186.082323055911,"平安公園"
"中山區","整層住家",35.3,"69998","2016-12-16 10:00:36","中山區農安街",0,1,0,0,0,0,0,0,0,0,0,0,0,0,0,1,1,1,1,"25.0648401","121.5294305","GEOMETRIC_CENTER",4696859,386.529905473152,"中山國小站",177.337756589235,"新壽公園"
"士林區","分租套房",8,"12000","2016-12-16 10:01:15","士林區中山北路七段14巷",0,0,0,0,0,0,1,0,0,0,0,0,1,0,0,1,1,1,1,"25.1197044","121.5332251","GEOMETRIC_CENTER",4698121,1826.29664892612,"明德站",78.1618025502771,"天和公園"
"中山區","獨立套房",13.8,"28000","2016-12-16 10:00:50","中山區新生北路三段",0,1,0,0,0,0,0,0,0,0,0,1,0,0,0,1,1,1,1,"25.0666336","121.5279828","GEOMETRIC_CENTER",4731295,466.181160868442,"中山國小站",178.031779795085,"新祿公園"
"萬華區","整層住家",50,"36000","2016-12-16 10:00:49","萬華區中華路二段364巷42號",0,0,0,0,1,0,0,0,0,0,0,0,0,0,0,1,1,1,1,"25.0284299","121.5036745","RANGE_INTERPOLATED",4660790,855.564595182382,"龍山寺站",430.841085548499,"青年公園"
"中山區","整層住家",35,"48000","2016-12-16 10:01:13","中山區農安街",0,1,0,0,0,0,0,0,0,0,0,0,0,0,0,1,1,1,1,"25.0648401","121.5294305","GEOMETRIC_CENTER",4679749,386.529905473152,"中山國小站",177.337756589235,"新壽公園"
"大安區","整層住家",16.3,"35000","2016-12-16 10:00:36","大安區忠孝東路四段",0,0,0,1,0,0,0,0,0,0,0,0,0,0,0,1,1,1,1,"25.0415608","121.5506930","GEOMETRIC_CENTER",4687454,97.2805003641392,"忠孝敦化站",373.640738277129,"大安398號綠地"
"北投區","整層住家",50,"36000","2016-12-16 10:01:02","北投區石牌路一段58巷",0,0,0,0,0,0,0,1,0,0,0,0,0,0,0,1,0,0,0,"25.1130135","121.5112401","GEOMETRIC_CENTER",4722503,466.63377740823,"石牌站",160.793109831258,"北投135號綠地"
"大安區","整層住家",40,"60000","2016-12-16 10:00:56","大安區光復南路180巷",0,0,0,1,0,0,0,0,0,0,0,0,0,0,0,0,0,0,0,"25.0423768","121.5564592","GEOMETRIC_CENTER",4705087,396.183829626509,"國父紀念館站",72.7603249426225,"延吉公園"
"松山區","分租套房",12,"14500","2016-12-16 10:01:13","松山區八德路三段199巷",0,0,1,0,0,0,0,0,0,0,0,0,1,0,0,1,1,1,1,"25.0490511","121.5563231","GEOMETRIC_CENTER",4681442,494.966051335474,"南京三民站",205.869137767512,"寧安公園"
"中正區","整層住家",22.3,"21000","2016-12-16 10:00:55","中正區重慶南路三段",0,0,0,0,0,0,0,0,0,0,0,0,0,0,0,0,0,0,0,"25.0259477","121.5161987","GEOMETRIC_CENTER",4731814,678.485740635307,"古亭站",136.514581671769,"螢橋公園"
"松山區","整層住家",10,"15000","2016-12-16 10:00:25","松山區南京東路四段120巷",0,0,1,0,0,0,0,0,0,0,0,0,0,0,1,1,0,1,1,"25.0505887","121.5551000","GEOMETRIC_CENTER",4681312,445.389062270736,"台北小巨蛋站",35.2715931792243,"寧安公園"
"中山區","整層住家",98,"160000","2016-12-16 10:01:03","中山區朱崙街",0,1,0,0,0,0,0,0,0,0,0,0,0,0,0,1,0,0,0,"25.0499970","121.5404536","GEOMETRIC_CENTER",4695961,457.2710671029,"南京復興站",144.556252626001,"朱崙公園"
"中山區","整層住家",24.5,"28000","2016-12-16 10:01:14","中山區新生北路三段",0,1,0,0,0,0,0,0,0,0,0,0,0,0,0,1,1,1,1,"25.0666336","121.5279828","GEOMETRIC_CENTER",4674732,466.181160868442,"中山國小站",178.031779795085,"新祿公園"
"南港區","分租套房",7,"10000","2016-12-16 10:00:56","南港區玉成街235巷",0,0,0,0,0,0,0,0,0,1,0,0,1,0,0,1,1,1,1,"25.0433646","121.5858757","GEOMETRIC_CENTER",4729990,386.999529102664,"後山埤站",98.2789000948394,"玉成公園"
"中山區","整層住家",18,"40000","2016-12-16 10:01:07","中山區吉林路",0,1,0,0,0,0,0,0,0,0,0,0,0,0,0,1,1,1,1,"25.0581536","121.5302038","GEOMETRIC_CENTER",4697178,347.282908490907,"行天宮站",259.016895904367,"中吉公園"
"中正區","雅房",5,"6500","2016-12-16 10:00:51","中正區廈門街147巷",0,0,0,0,0,0,0,0,0,0,0,0,0,1,0,1,0,1,1,"25.0216700","121.5190169","GEOMETRIC_CENTER",4102926,634.133342457522,"古亭站",164.951891559391,"牯嶺公園"
"中山區","整層住家",24.8,"45000","2016-12-16 10:00:31","中山區南京東路二段",0,1,0,0,0,0,0,0,0,0,0,0,0,0,0,1,1,1,1,"25.0519529","121.5319662","GEOMETRIC_CENTER",4702190,112.348875893512,"松江南京站",164.002259854878,"一江公園"
"中山區","獨立套房",13.5,"23000","2016-12-16 10:00:48","中山區中山北路一段53巷",0,1,0,0,0,0,0,0,0,0,0,1,0,0,0,1,1,1,1,"25.0490809","121.5227047","GEOMETRIC_CENTER",4688584,487.874263356111,"中山站",269.386308061607,"中央藝文公園"
"士林區","獨立套房",13,"10500","2016-12-16 10:00:59","士林區延平北路五段136巷",0,0,0,0,0,0,1,0,0,0,0,1,0,0,0,1,0,0,1,"25.0822270","121.5113606","GEOMETRIC_CENTER",4577458,1413.92240105155,"劍潭站",26.9817864267297,"福順公園"
"內湖區","雅房",4.5,"7000","2016-12-16 10:00:55","內湖區內湖路一段47巷",0,0,0,0,0,0,0,0,1,0,0,0,0,1,0,1,0,1,1,"25.0869646","121.5587498","GEOMETRIC_CENTER",4695161,395.741642805538,"劍南路站",212.960000163119,"西安廣場"
"信義區","獨立套房",10,"9998","2016-12-16 10:00:54","信義區吳興街220巷",0,0,0,0,0,1,0,0,0,0,0,1,0,0,0,1,1,1,1,"25.0264274","121.5615266","GEOMETRIC_CENTER",4723148,756.804495537776,"台北101/世貿中心站",128.218685620175,"信義415號公園"
"中山區","獨立套房",13,"20000","2016-12-16 10:01:02","中山區林森北路",0,1,0,0,0,0,0,0,0,0,0,1,0,0,0,1,1,1,1,"25.0581693","121.5255269","GEOMETRIC_CENTER",4669644,497.409985284851,"雙連站",120.636719282011,"永盛公園"
"文山區","雅房",4,"6000","2016-12-16 10:01:01","文山區興德路66巷25號",0,0,0,0,0,0,0,0,0,0,1,0,0,1,0,1,0,1,1,"25.0034326","121.5585467","ROOFTOP",4725346,269.793223484151,"辛亥站",198.677147830983,"萬芳8號公園"
"大安區","整層住家",103,"200000","2016-12-16 10:00:05","大安區羅斯福路三段",0,0,0,1,0,0,0,0,0,0,0,0,0,0,0,1,1,1,1,"25.0205107","121.5285280","GEOMETRIC_CENTER",4603170,437.828833521963,"臺電大樓站",170.769159782595,"古風公園"
"文山區","雅房",4,"5500","2016-12-16 10:00:14","文山區木柵路二段109巷",0,0,0,0,0,0,0,0,0,0,1,0,0,1,0,1,1,0,1,"24.9904392","121.5632037","GEOMETRIC_CENTER",4709436,1116.81877173034,"萬芳醫院站",184.350542119536,"久康公園"
"士林區","獨立套房",8,"13500","2016-12-16 10:00:11","士林區延平北路五段",0,0,0,0,0,0,1,0,0,0,0,1,0,0,0,1,1,1,1,"25.0826572","121.5102724","GEOMETRIC_CENTER",4743112,1512.85589090803,"劍潭站",92.9818721529978,"福順公園"
"中山區","獨立套房",12,"23000","2016-12-16 10:00:13","中山區伊通街",0,1,0,0,0,0,0,0,0,0,0,1,0,0,0,1,1,1,1,"25.0513998","121.5347938","GEOMETRIC_CENTER",4723856,208.156006347517,"松江南京站",138.034766765417,"伊通公園"
"信義區","整層住家",18,"22000","2016-12-16 10:00:23","信義區吳興街284巷",0,0,0,0,0,1,0,0,0,0,0,0,0,0,0,1,0,0,0,"25.0242460","121.5635970","GEOMETRIC_CENTER",4720326,981.766492884638,"台北101/世貿中心站",82.7066593412238,"黎雙公園"
"中正區","分租套房",9,"18000","2016-12-16 10:00:16","中正區信陽街",0,0,0,0,0,0,0,0,0,0,0,0,1,0,0,1,1,1,1,"25.0446488","121.5160937","GEOMETRIC_CENTER",4705072,358.76618171184,"臺北車站",78.1356222699848,"黎明公園"
"松山區","分租套房",10,"21000","2016-12-16 10:00:23","松山區八德路三段12巷",0,0,1,0,0,0,0,0,0,0,0,0,1,0,0,1,1,1,1,"25.0464804","121.5507157","GEOMETRIC_CENTER",4703408,549.093871703013,"忠孝敦化站",25.029177733636,"敦化公園"
"文山區","獨立套房",5,"7200","2016-12-16 10:00:13","文山區育英街17巷",0,0,0,0,0,0,0,0,0,0,1,1,0,0,1,1,0,1,1,"24.9903159","121.5384509","GEOMETRIC_CENTER",4674805,429.569574718055,"景美站",421.181347873865,"萬慶公園"
"萬華區","獨立套房",7,"11000","2016-12-16 10:00:24","萬華區華西街17號",0,0,0,0,1,0,0,0,0,0,0,1,0,0,0,1,1,1,1,"25.0391676","121.4986419","ROOFTOP",4518869,449.049396636603,"龍山寺站",40.3507482859859,"青山公園"
"南港區","雅房",6,"6000","2016-12-16 10:00:05","南港區福德街309巷27號",0,0,0,0,0,0,0,0,0,1,0,0,0,1,0,1,0,0,1,"25.0390832","121.5882407","ROOFTOP",4683519,880.019289606077,"後山埤站",130.791673007451,"百福公園"
"內湖區","整層住家",25.2,"35800","2016-12-16 10:00:08","內湖區內湖路二段",0,0,0,0,0,0,0,0,1,0,0,0,0,0,0,1,1,1,1,"25.0811641","121.5867075","GEOMETRIC_CENTER",4682040,314.695080040084,"文德站",269.166721663105,"碧湖公園"
"大安區","整層住家",30,"18000","2016-12-16 10:00:24","大安區辛亥路三段157巷12弄8號",0,0,0,1,0,0,0,0,0,0,0,0,0,0,0,0,0,0,0,"25.0172719","121.5497393","ROOFTOP",4674815,740.078636416977,"六張犁站",65.4534790193955,"臥龍公園"
"信義區","獨立套房",6,"13000","2016-12-16 10:00:10","信義區信義路五段150巷463號",0,0,0,0,0,1,0,0,0,0,0,1,0,0,0,1,1,1,1,"25.0228140","121.5724820","ROOFTOP",4749849,1185.43706791096,"象山站",432.188994376626,"惠安水與綠生活綠地"
"北投區","獨立套房",9,"13000","2016-12-16 10:00:15","北投區雙全街62巷11號",0,0,0,0,0,0,0,1,0,0,0,1,0,0,0,1,1,1,1,"25.1375190","121.5003941","ROOFTOP",4706258,236.136955227351,"新北投站",103.105295203196,"中庸公園"
"信義區","雅房",4,"6600","2016-12-16 10:00:07","信義區富陽街44巷",0,0,0,0,0,1,0,0,0,0,0,0,0,1,0,1,1,1,1,"25.0226897","121.5559208","GEOMETRIC_CENTER",4677134,448.109747475206,"六張犁站",133.169424963368,"黎平綠地"
"大安區","雅房",7,"9000","2016-12-16 10:00:05","大安區新生南路一段103巷7號",0,0,0,1,0,0,0,0,0,0,0,0,0,1,0,1,0,0,1,"25.0408247","121.5338203","ROOFTOP",4676562,189.145653905676,"忠孝新生站",192.488550592213,"民輝公園"
"大同區","獨立套房",12,"19500","2016-12-16 10:00:15","大同區民權西路",1,0,0,0,0,0,0,0,0,0,0,1,0,0,0,1,1,1,1,"25.0629057","121.5141620","GEOMETRIC_CENTER",4737626,150.701412175067,"大橋頭站",122.791086829852,"德鄰公園"
"南港區","整層住家",42,"28800","2016-12-16 10:00:22","南港區忠孝東路六段276號",0,0,0,0,0,0,0,0,0,1,0,0,0,0,0,1,1,1,1,"25.0491015","121.5890698","ROOFTOP",4709122,454.510344818642,"昆陽站",336.104745478888,"聯成公園"
"信義區","獨立套房",5,"10000","2016-12-16 10:00:11","信義區嘉興街216巷",0,0,0,0,0,1,0,0,0,0,0,1,0,0,0,1,1,1,1,"25.0270499","121.5562963","GEOMETRIC_CENTER",4748054,601.433083072447,"六張犁站",135.718674037221,"臨江公園"
"大安區","整層住家",40,"33000","2016-12-16 10:00:04","大安區金華街120號",0,0,0,1,0,0,0,0,0,0,0,0,0,0,0,1,1,1,1,"25.0300249","121.5271230","ROOFTOP",4743092,484.246791740277,"東門站",242.439581319698,"錦安公園"
"中山區","分租套房",9.5,"10800","2016-12-16 10:00:17","中山區中山北路一段105巷16-2號",0,1,0,0,0,0,0,0,0,0,0,0,1,0,0,1,1,1,1,"25.0504530","121.5242202","ROOFTOP",4717016,477.026763721632,"中山站",267.967999680888,"林森公園"
"大安區","雅房",6,"8800","2016-12-16 10:00:13","大安區和平東路二段",0,0,0,1,0,0,0,0,0,0,0,0,0,1,0,1,1,1,1,"25.0253574","121.5402850","GEOMETRIC_CENTER",4730252,329.19128627749,"科技大樓站",127.638986526991,"瑞安公園"
"大安區","分租套房",6,"10000","2016-12-16 10:00:19","大安區和平東路二段96巷17弄15號",0,0,0,1,0,0,0,0,0,0,0,0,1,0,0,1,0,1,1,"25.0231268","121.5419512","ROOFTOP",4422683,365.761887585402,"科技大樓站",70.1897206149394,"和平公園"
"中山區","分租套房",10,"16000","2016-12-16 09:54:34","中山區龍江路249巷7號",0,1,0,0,0,0,0,0,0,0,0,0,1,0,0,1,1,1,1,"25.0588609","121.5413530","ROOFTOP",4705887,364.507084115969,"中山國中站",134.244434736193,"龍江公園"
"中山區","整層住家",21,"28500","2016-12-16 09:52:49","中山區市民大道三段169號",0,1,0,0,0,0,0,0,0,0,0,0,0,0,0,1,1,1,1,"25.0447580","121.5407674","ROOFTOP",4744852,461.352011086209,"忠孝復興站",246.304074139288,"環東公園"
"內湖區","分租套房",6,"9500","2016-12-16 09:50:05","內湖區環山路二段25巷",0,0,0,0,0,0,0,0,1,0,0,0,1,0,0,1,1,1,1,"25.0855875","121.5716946","GEOMETRIC_CENTER",4754018,593.328739128519,"西湖站",256.435645240005,"西湖公園"
"大安區","獨立套房",9,"16000","2016-12-16 09:54:03","大安區基隆路二段",0,0,0,1,0,0,0,0,0,0,0,1,0,0,0,1,1,1,1,"25.0237191","121.5517406","GEOMETRIC_CENTER",4674811,12.3897277450262,"六張犁站",201.050895470463,"全安公園"
"士林區","分租套房",6,"9000","2016-12-16 09:54:20","士林區中正路201巷",0,0,0,0,0,0,1,0,0,0,0,0,1,0,0,1,1,1,1,"25.0955131","121.5268628","APPROXIMATE",4747757,229.283754453084,"士林站",264.767812591867,"福林公園"
"文山區","雅房",6,"6800","2016-12-16 09:54:20","文山區汀州路四段140巷2弄11號",0,0,0,0,0,0,0,0,0,0,1,0,0,1,0,1,0,0,1,"25.0056649","121.5355095","ROOFTOP",4739804,736.656351802432,"公館站",69.7706683671769,NA
"信義區","整層住家",32,"32000","2016-12-16 09:54:24","信義區松山路393巷3弄5號",0,0,0,0,0,1,0,0,0,0,0,0,0,0,0,1,1,1,1,"25.0420259","121.5782940","ROOFTOP",4736569,226.530446098081,"永春站",88.7184126632589,"永春公園"
"中山區","整層住家",95.1,"160000","2016-12-16 09:54:19","中山區中山北路一段",0,1,0,0,0,0,0,0,0,0,0,0,0,0,0,1,0,0,0,"25.0501438","121.5216317","GEOMETRIC_CENTER",4729544,333.774399359875,"中山站",296.545460410199,"中山4號廣場"
"中山區","獨立套房",12.6,"20000","2016-12-16 09:54:23","中山區中山北路一段",0,1,0,0,0,0,0,0,0,0,0,1,0,0,0,1,1,1,1,"25.0501438","121.5216317","GEOMETRIC_CENTER",4737743,333.774399359875,"中山站",296.545460410199,"中山4號廣場"
"內湖區","獨立套房",5.5,"8900","2016-12-16 09:54:16","內湖區成功路三段69號",0,0,0,0,0,0,0,0,1,0,0,1,0,0,0,1,1,1,1,"25.0777903","121.5901210","ROOFTOP",4687618,471.154423812436,"文德站",368.415924765274,"紫陽綠地"
"大同區","獨立套房",14,"20000","2016-12-16 09:54:23","大同區寧夏路",1,0,0,0,0,0,0,0,0,0,0,1,0,0,0,1,1,1,1,"25.0579744","121.5152701","GEOMETRIC_CENTER",4678868,537.862205741448,"雙連站",219.846328215779,"歸綏公園"
"松山區","整層住家",29,"35000","2016-12-16 09:54:19","松山區三民路136巷",0,0,1,0,0,0,0,0,0,0,0,0,0,0,0,1,0,1,1,"25.0605944","121.5641301","GEOMETRIC_CENTER",4748235,1082.33778885568,"南京三民站",53.8083472796741,"富民生態公園"
"文山區","獨立套房",6,"9000","2016-12-16 09:54:23","文山區興德路",0,0,0,0,0,0,0,0,0,0,1,1,0,0,0,1,1,1,1,"25.0032272","121.5571806","GEOMETRIC_CENTER",4684609,250.334088759987,"辛亥站",245.928045332411,"興泰公園"
"大安區","整層住家",43,"43000","2016-12-16 09:54:19","大安區和平東路三段",0,0,0,1,0,0,0,0,0,0,0,0,0,0,0,1,1,1,1,"25.0184845","121.5583506","GEOMETRIC_CENTER",4685199,433.628368514272,"麟光站",122.346769955552,"黎忠公園"
"北投區","整層住家",70,"38000","2016-12-16 09:54:04","北投區公館路350巷",0,0,0,0,0,0,0,1,0,0,0,0,0,0,0,0,0,0,0,"25.1232000","121.5048343","APPROXIMATE",4677506,295.933960388581,"唭哩岸站",198.240838447234,"北投66號綠地"
"北投區","整層住家",54.9,"80000","2016-12-16 09:54:16","北投區明德路38巷16號",0,0,0,0,0,0,0,1,0,0,0,0,0,0,0,1,0,0,0,"25.1067935","121.5173179","RANGE_INTERPOLATED",4730298,360.442488119984,"明德站",324.050877319324,"建民公園"
"士林區","獨立套房",9,"20000","2016-12-16 09:54:06","士林區士東路89巷",0,0,0,0,0,0,1,0,0,0,0,1,0,0,0,1,1,1,1,"25.1127240","121.5286101","GEOMETRIC_CENTER",4722467,1039.27192985373,"明德站",228.676484746713,"蘭興二號綠地"
"大安區","獨立套房",10,"16500","2016-12-16 09:46:49","大安區敦化南路一段160巷",0,0,0,1,0,0,0,0,0,0,0,1,0,0,0,1,1,1,1,"25.0435777","121.5472239","GEOMETRIC_CENTER",4753414,410.622662017793,"忠孝復興站",199.755115333231,"
"松山區","整層住家",23,"31000","2016-12-16 09:46:46","松山區八德路四段",0,0,1,0,0,0,0,0,0,0,0,0,0,0,0,1,1,1,1,"25.0493187","121.5688828","GEOMETRIC_CENTER",4730923,874.283167612633,"松山站",200.411444612524,"交六"
"萬華區","獨立套房",5,"9500","2016-12-16 09:48:08","萬華區康定路172巷",0,0,0,0,1,0,0,0,0,0,0,1,0,0,0,0,0,0,0,"25.0393123","121.5011446","GEOMETRIC_CENTER",4746630,468.267583803709,"龍山寺站",183.495223167746,"老松公園"
"信義區","獨立套房",6,"9000","2016-12-16 09:48:21","信義區永吉路180巷42弄5號",0,0,0,0,0,1,0,0,0,0,0,1,0,0,0,1,1,1,1,"25.0443863","121.5711695","ROOFTOP",4705582,637.055713092339,"市政府站",196.081169135313,"福祥公園"
"中山區","獨立套房",11.2,"24000","2016-12-16 09:48:28","中山區民生東路一段",0,1,0,0,0,0,0,0,0,0,0,1,0,0,0,1,1,1,1,"25.0580558","121.5252581","GEOMETRIC_CENTER",4743272,469.723880110138,"雙連站",117.876550445138,"永盛公園"
"大同區","整層住家",19.8,"35000","2016-12-16 09:48:10","大同區寧夏路",1,0,0,0,0,0,0,0,0,0,0,0,0,0,0,1,1,1,1,"25.0579744","121.5152701","GEOMETRIC_CENTER",4728741,537.862205741448,"雙連站",219.846328215779,"歸綏公園"
"士林區","獨立套房",7,"9500","2016-12-16 09:48:07","士林區天母東路",0,0,0,0,0,0,1,0,0,0,0,1,0,0,0,1,1,1,1,"25.1181617","121.5345832","GEOMETRIC_CENTER",4682650,1843.53523314375,"明德站",194.042228431674,"天和公園"
"中山區","整層住家",24.1,"28000","2016-12-16 09:48:10","中山區雙城街19巷",0,1,0,0,0,0,0,0,0,0,0,0,0,0,0,1,1,1,1,"25.0653951","121.5256844","GEOMETRIC_CENTER",4728746,309.758970217216,"中山國小站",200.817626168571,"晴光公園"
"中山區","整層住家",19.2,"45000","2016-12-16 09:48:24","中山區錦州街23巷",0,1,0,0,0,0,0,0,0,0,0,0,0,0,0,1,1,1,1,"25.0610176","121.5251299","GEOMETRIC_CENTER",4737549,227.278562805834,"中山國小站",73.9573039984008,"新興公園"
"中山區","分租套房",8,"11500","2016-12-16 09:48:15","中山區雙城街7巷",0,1,0,0,0,0,0,0,0,0,0,0,1,0,0,1,1,1,1,"25.0637100","121.5253522","GEOMETRIC_CENTER",4715084,156.100488497849,"中山國小站",81.6615733329062,"晴光公園"
"中山區","整層住家",20.6,"34800","2016-12-16 09:48:09","中山區雙城街19巷",0,1,0,0,0,0,0,0,0,0,0,0,0,0,0,1,1,1,1,"25.0653951","121.5256844","GEOMETRIC_CENTER",4728749,309.758970217216,"中山國小站",200.817626168571,"晴光公園"
"南港區","整層住家",39.3,"40000","2016-12-16 09:48:16","南港區園區街",0,0,0,0,0,0,0,0,0,1,0,0,0,0,0,1,1,1,1,"25.0590731","121.6125534","GEOMETRIC_CENTER",4734357,353.880603176954,"南港軟體園區站",168.130393756516,"南港65號園區綠地"
"中山區","獨立套房",15,"25000","2016-12-16 09:48:07","中山區民生東路一段70巷",0,1,0,0,0,0,0,0,0,0,0,1,0,0,0,1,1,1,1,"25.0574809","121.5264306","GEOMETRIC_CENTER",3887054,580.209712764719,"中山國小站",238.275874084554,"永盛公園"
"大同區","分租套房",6,"7500","2016-12-16 09:48:24","大同區興城街48號",1,0,0,0,0,0,0,0,0,0,0,0,1,0,0,1,1,1,1,"25.0586261","121.5175297","ROOFTOP",4747310,320.261669296543,"雙連站",142.387106677889,"蔣渭水公園"
"中正區","整層住家",35,"32000","2016-12-16 09:48:25","中正區紹安街50巷",0,0,0,0,0,0,0,0,0,0,0,0,0,0,0,1,0,0,0,"25.0245351","121.5137788","GEOMETRIC_CENTER",4687587,939.286924381267,"古亭站",426.323418932951,"螢橋公園"
"中山區","獨立套房",14.9,"21000","2016-12-16 09:42:23","中山區南京東路二段",0,1,0,0,0,0,0,0,0,0,0,1,0,0,0,1,1,1,1,"25.0519529","121.5319662","GEOMETRIC_CENTER",4730818,112.348875893512,"松江南京站",164.002259854878,"一江公園"
"中山區","獨立套房",21.9,"29000","2016-12-16 09:42:02","中山區林森北路",0,1,0,0,0,0,0,0,0,0,0,1,0,0,0,1,1,1,0,"25.0581693","121.5255269","GEOMETRIC_CENTER",3727585,497.409985284851,"雙連站",120.636719282011,"永盛公園"
"大安區","獨立套房",9,"16500","2016-12-16 09:42:14","大安區羅斯福路四段",0,0,0,1,0,0,0,0,0,0,0,1,0,0,0,1,1,1,1,"25.0135681","121.5356873","GEOMETRIC_CENTER",4723799,280.94020040935,"公館站",78.7785190243381,"公館公園"
"中山區","分租套房",8,"7500","2016-12-16 09:42:09","中山區新生北路二段141巷",0,1,0,0,0,0,0,0,0,0,0,0,1,0,0,1,1,1,1,"25.0616411","121.5289490","GEOMETRIC_CENTER",4752296,280.802859816229,"中山國小站",119.666681413695,"錦州公園"
"中山區","獨立套房",11.3,"23500","2016-12-16 09:42:16","中山區農安街",0,1,0,0,0,0,0,0,0,0,0,1,0,0,0,1,1,1,1,"25.0648401","121.5294305","GEOMETRIC_CENTER",4716799,386.529905473152,"中山國小站",177.337756589235,"新壽公園"
"中山區","獨立套房",14.3,"16000","2016-12-16 09:42:21","中山區中山北路一段135巷",0,1,0,0,0,0,0,0,0,0,0,1,0,0,0,1,1,1,1,"25.0515380","121.5234094","GEOMETRIC_CENTER",4728709,344.848294681333,"中山站",263.716048381912,"林森公園"
"內湖區","獨立套房",7,"9000","2016-12-16 09:42:02","內湖區內湖路三段59巷",0,0,0,0,0,0,0,0,1,0,0,1,0,0,0,1,1,1,1,"25.0857870","121.5919426","GEOMETRIC_CENTER",4739371,1033.51235712207,"文德站",143.946811313295,"碧山公園"
"大安區","整層住家",20,"26000","2016-12-16 09:42:06","大安區和平東路三段346巷",0,0,0,1,0,0,0,0,0,0,0,0,0,0,0,1,0,0,0,"25.0192826","121.5573051","GEOMETRIC_CENTER",4690608,569.694191366768,"麟光站",142.907940983257,"黎孝公園"
"內湖區","獨立套房",10,"14500","2016-12-16 09:42:17","內湖區金龍路",0,0,0,0,0,0,0,0,1,0,0,1,0,0,0,1,1,1,1,"25.0857881","121.5903014","GEOMETRIC_CENTER",3298988,938.908543314328,"文德站",220.55423380743,"碧山公園"
"文山區","整層住家",65.5,"47000","2016-12-16 09:42:08","文山區政大二街35號",0,0,0,0,0,0,0,0,0,0,1,0,0,0,0,1,1,1,1,"24.9865471","121.5840720","RANGE_INTERPOLATED",4725107,1385.3365968043,"動物園站",207.828464104746,"文山木柵59號公園"
"松山區","整層住家",22,"28000","2016-12-16 09:42:05","松山區八德路四段",0,0,1,0,0,0,0,0,0,0,0,0,0,0,0,1,1,1,1,"25.0493187","121.5688828","GEOMETRIC_CENTER",4730225,874.283167612633,"松山站",200.411444612524,"交六"
"中山區","獨立套房",7,"10000","2016-12-16 09:38:35","中山區合江街154號",0,1,0,0,0,0,0,0,0,0,0,1,0,0,0,1,1,1,1,"25.0600716","121.5391551","ROOFTOP",4740836,518.602307224195,"中山國中站",131.489320792946,"江寧公園"
"文山區","整層住家",33.2,"28000","2016-12-16 09:38:11","文山區羅斯福路五段269巷",0,0,0,0,0,0,0,0,0,0,1,0,0,0,0,0,0,1,1,"25.0012609","121.5402405","GEOMETRIC_CENTER",4754051,220.290424832084,"萬隆站",178.303247590409,"萬有二號公園"
"士林區","整層住家",30.3,"23000","2016-12-16 09:36:02","士林區社正路87巷15號",0,0,0,0,0,0,1,0,0,0,0,0,0,0,0,0,0,0,0,"25.0896660","121.5109231","ROOFTOP",4735304,1523.45509739088,"劍潭站",246.395045122077,"社正公園"
"士林區","獨立套房",6,"8600","2016-12-16 09:36:22","士林區延平北路五段",0,0,0,0,0,0,1,0,0,0,0,1,0,0,0,1,1,1,1,"25.0826572","121.5102724","GEOMETRIC_CENTER",4711163,1512.85589090803,"劍潭站",92.9818721529978,"福順公園"
"中正區","整層住家",14,"28000","2016-12-16 09:36:04","中正區新生南路一段",0,0,0,0,0,0,0,0,0,0,0,0,0,0,0,1,1,1,1,"25.0390034","121.5327670","GEOMETRIC_CENTER",4720388,386.011438066441,"忠孝新生站",193.387053539652,"文光公園"
"萬華區","獨立套房",8,"12500","2016-12-16 09:36:05","萬華區康定路172巷",0,0,0,0,1,0,0,0,0,0,0,1,0,0,0,1,1,1,1,"25.0393123","121.5011446","GEOMETRIC_CENTER",4746599,468.267583803709,"龍山寺站",183.495223167746,"老松公園"
"內湖區","獨立套房",8,"14000","2016-12-16 09:36:12","內湖區內湖路一段285巷",0,0,0,0,0,0,0,0,1,0,0,1,0,0,0,1,1,1,1,"25.0842133","121.5669419","GEOMETRIC_CENTER",4732823,233.185374711254,"西湖站",176.984416583435,"治磐廣場"
"信義區","整層住家",38.6,"68000","2016-12-16 09:36:07","信義區永吉路",0,0,0,0,0,1,0,0,0,0,0,0,0,0,0,1,1,1,1,"25.0454982","121.5741911","GEOMETRIC_CENTER",4735308,585.449652403137,"永春站",169.964708496014,"四育公園"
"信義區","分租套房",6,"9000","2016-12-16 09:36:24","信義區信義路五段150巷",0,0,0,0,0,1,0,0,0,0,0,0,1,0,0,1,0,1,1,"25.0239338","121.5718000","GEOMETRIC_CENTER",4533255,1045.94507337858,"象山站",364.734950163704,"惠安水與綠生活綠地"
"萬華區","整層住家",13.5,"23000","2016-12-16 09:31:12","萬華區漢口街二段",0,0,0,0,1,0,0,0,0,0,0,0,0,0,0,1,1,1,1,"25.0458210","121.5061963","GEOMETRIC_CENTER",4747754,437.582841042613,"西門站",40.0250609023436,"福星公園"
"北投區","分租套房",4,"6600","2016-12-16 09:31:21","北投區石牌路一段39巷",0,0,0,0,0,0,0,1,0,0,0,0,1,0,0,1,0,0,1,"25.1157959","121.5096258","GEOMETRIC_CENTER",4670257,614.594447629965,"石牌站",84.4700521239139,"榮光公園"
"信義區","整層住家",18.9,"35000","2016-12-16 09:31:06","信義區信義路五段150巷",0,0,0,0,0,1,0,0,0,0,0,0,0,0,0,1,0,0,1,"25.0239338","121.5718000","GEOMETRIC_CENTER",4704340,1045.94507337858,"象山站",364.734950163704,"惠安水與綠生活綠地"
"中山區","整層住家",19.5,"28000","2016-12-16 09:31:16","中山區林森北路",0,1,0,0,0,0,0,0,0,0,0,0,0,0,0,1,1,1,1,"25.0581693","121.5255269","GEOMETRIC_CENTER",4723503,497.409985284851,"雙連站",120.636719282011,"永盛公園"
"中山區","整層住家",12.9,"23000","2016-12-16 09:31:18","中山區新生北路三段",0,1,0,0,0,0,0,0,0,0,0,0,0,0,0,1,1,1,1,"25.0666336","121.5279828","GEOMETRIC_CENTER",4750424,466.181160868442,"中山國小站",178.031779795085,"新祿公園"
"大安區","雅房",6,"7000","2016-12-16 09:31:12","大安區師大路49號",0,0,0,1,0,0,0,0,0,0,0,0,0,1,0,1,0,0,1,"25.0242732","121.5285649","RANGE_INTERPOLATED",4737158,605.72199160544,"古亭站",41.3514183410904,"師大公園"
"萬華區","分租套房",7,"8500","2016-12-16 09:30:52","萬華區西園路一段220巷49號",0,0,0,0,1,0,0,0,0,0,0,0,1,0,0,1,1,1,1,"25.0349295","121.4974293","ROOFTOP",4723750,244.844163016026,"龍山寺站",224.526433250533,"艋舺公園"
"中山區","獨立套房",6,"9599","2016-12-16 09:31:25","中山區合江街83巷",0,1,0,0,0,0,0,0,0,0,0,1,0,0,0,1,1,1,1,"25.0591351","121.5392093","GEOMETRIC_CENTER",4740320,540.628571066786,"中山國中站",59.517171124072,"合江公園"
"中正區","整層住家",25,"18000","2016-12-16 09:31:17","中正區中華路二段163巷",0,0,0,0,0,0,0,0,0,0,0,0,0,0,1,1,1,1,1,"25.0309619","121.5045556","GEOMETRIC_CENTER",4726644,677.141885396517,"龍山寺站",578.19373500259,"萬華51號公園"
"中山區","整層住家",10,"22000","2016-12-16 09:31:19","中山區建國北路一段",0,1,0,0,0,0,0,0,0,0,0,0,0,0,0,1,1,1,1,"25.0486971","121.5365042","GEOMETRIC_CENTER",4713446,472.693482397371,"松江南京站",238.971294354161,"伊通公園"
"萬華區","整層住家",25.4,"34000","2016-12-16 09:31:12","萬華區漢口街二段",0,0,0,0,1,0,0,0,0,0,0,0,0,0,0,1,1,1,1,"25.0458210","121.5061963","GEOMETRIC_CENTER",4747746,437.582841042613,"西門站",40.0250609023436,"福星公園"
"南港區","整層住家",152.2,"115000","2016-12-16 09:30:57","南港區研究院路二段61巷",0,0,0,0,0,0,0,0,0,1,0,0,0,0,0,1,0,0,0,"25.0431358","121.6166264","APPROXIMATE",4702267,1373.5134894761,"南港展覽館站",102.949189843544,"南港29號綠地"
"中山區","整層住家",12.9,"20000","2016-12-16 09:30:51","中山區新生北路三段",0,1,0,0,0,0,0,0,0,0,0,0,0,0,0,1,1,1,1,"25.0666336","121.5279828","GEOMETRIC_CENTER",4723516,466.181160868442,"中山國小站",178.031779795085,"新祿公園"
"大安區","整層住家",38,"89000","2016-12-16 09:31:10","大安區和平東路二段",0,0,0,1,0,0,0,0,0,0,0,0,0,0,0,1,1,1,1,"25.0253574","121.5402850","GEOMETRIC_CENTER",2279486,329.19128627749,"科技大樓站",127.638986526991,"瑞安公園"
"中山區","整層住家",19.5,"27000","2016-12-16 09:31:28","中山區林森北路",0,1,0,0,0,0,0,0,0,0,0,0,0,0,0,1,1,1,1,"25.0581693","121.5255269","GEOMETRIC_CENTER",4676260,497.409985284851,"雙連站",120.636719282011,"永盛公園"
"萬華區","獨立套房",10.7,"11800","2016-12-16 09:31:06","萬華區長沙街二段",0,0,0,0,1,0,0,0,0,0,0,1,0,0,0,1,1,1,1,"25.0404283","121.5032806","GEOMETRIC_CENTER",4753487,480.097537018696,"西門站",142.356589183962,"萬華266號綠地"
"大同區","獨立套房",5,"10500","2016-12-16 09:30:46","大同區重慶北路二段",1,0,0,0,0,0,0,0,0,0,0,1,0,0,0,1,1,1,1,"25.0585075","121.5137099","GEOMETRIC_CENTER",4671621,537.900327010645,"大橋頭站",86.5324842477922,"歸綏公園"
"中山區","獨立套房",10,"13000","2016-12-16 11:04:29","中山區民生東路一段87號",0,1,0,0,0,0,0,0,0,0,0,1,0,0,0,1,1,1,1,"25.0583109","121.5272170","ROOFTOP",4735187,494.422262347258,"中山國小站",238.134828023478,"正守公園"
"大安區","分租套房",7.5,"14000","2016-12-16 09:31:16","大安區信義路四段265巷",0,0,0,1,0,0,0,0,0,0,0,0,1,0,0,1,1,1,1,"25.0346278","121.5549832","GEOMETRIC_CENTER",4690592,277.308727072781,"信義安和站",130.766289752871,"敦安公園"
"萬華區","獨立套房",8,"12000","2016-12-16 09:30:55","萬華區康定路172巷",0,0,0,0,1,0,0,0,0,0,0,1,0,0,0,1,1,1,0,"25.0393123","121.5011446","GEOMETRIC_CENTER",4746572,468.267583803709,"龍山寺站",183.495223167746,"老松公園"
